   name1,name2,street1,city,state,zip,zip4,county,phone,intake_prompt,intake1,intake2,website,latitude,longitude,type_facility
Spectrum Health Systems Inc,Waltham,210 Bear Hill Road,Waltham,MA,2451,,Middlesex,781-290-4970,,508-917-6792,,http://www.spectrumhealthsystems.org,42.383622,-71.266143,SA
Hurley House,Recovery Home,12 Lowell Street,Waltham,MA,2454,,Middlesex,781-891-4323,,,781-899-2540,http://www.thehurleyhouse.com,42.37055259,-71.23380504,SA
SMOC Behavioral Healthcare,,230 Maple Street,Framingham,MA,1702,,Middlesex,508-480-0092,,508-879-2250 x3145,,http://www.smoc.org,42.292709,-71.4396786,SA
Veterans MH and Addiction Programs,(VMHAP),200 Springs Road,Bedford,MA,1730,,Middlesex,800-838-6331 x2580,,800-838-6331 x2483,,http://www.bedford.va.gov,42.5048759,-71.2734301,SA
SMOC Behavioral Healthcare,Sage House,517 Winter Street,Framingham,MA,1702,,Middlesex,508-626-2586,,,,http://www.smoc.org,42.285193,-71.443207,SA
Genesis Counseling Services Inc,,24 Union Avenue,Framingham,MA,1702,,Middlesex,508-620-2992,,,,http://www.genesiscounselingservices.org,42.2792452,-71.4172572,SA
Spectrum Health Systems Inc,,68 Franklin Street,Framingham,MA,1702,,Middlesex,508-875-5801,,508-831-0045 x1161,,http://www.spectrumhealthsystems.org,42.279063,-71.418366,SA
SMOC Behavioral Healthcare,,100 Howard Street,Framingham,MA,1702,,Middlesex,508-879-2250,,508-879-2250 x3145,,http://www.smoc.org,42.2778757,-71.4162872,SA
Advocates Community Counseling,,354 Waverly Street,Framingham,MA,1702,,Middlesex,508-661-2020,,,,http://www.advocates.org/,42.276897,-71.4138412,SA
New England Aftercare Ministries Inc,The Bridge House,18 Summit Street,Framingham,MA,1702,,Middlesex,508-872-6194 x102,,508-872-6194 x105,,http://www.thebridgehouse.org,42.273066,-71.41168,SA
McLean Hospital,Alcohol and Drug Abuse Treatment,115 Mill Street,Belmont,MA,2478,,Middlesex,800-906-9531,,617-855-3141,,http://www.mcleanhospital.org,42.3942245,-71.1913762,SA
McLean Hospital,East House II Acute Residential Trt,115 Mill Street,Belmont,MA,2478,,Middlesex,617-855-2743,,617-855-2800,,http://www.mcleanhospital.org/programs/adolescent-art,42.3942245,-71.1913762,SA
Catholic Charities,Bureau Arch Boston Genesis 11,295 Adams Street,Newton,MA,2458,,Middlesex,617-332-9905,,617-661-3991,,http://www.ccab.org,42.355738,-71.1970876,SA
Square Medical Group,,124 Watertown Street,Watertown,MA,2472,,Middlesex,617-916-5069,,,,http://www.squaremedicalgroup.org/,42.3626965,-71.1909418,SA
Right Turn,,440 Arsenal Street,Watertown,MA,2472,,Middlesex,781-646-3800,,781-646-3800 x101,,http://www.right-turn.org,42.3636325,-71.1624482,SA
Column Health LLC,,339 Massachusetts Avenue,Arlington,MA,2474,,Middlesex,339-368-7696,,,844-265-8661,http://www.columnhealth.com/,42.4110897,-71.1477398,SA
Steward St Elizabeths/SECAP/ATS,,736 Cambridge Street,Brighton,MA,2135,,Suffolk,617-789-3000 x2574,,617-789-2574,,http://www.steward.org/Substance-Abuse,42.3489582,-71.1476809,SA
North Charles Institute for,The Addictions,54 Washburn Avenue,Cambridge,MA,2140,,Middlesex,617-661-5700,,,,http://www.northcharles.org,42.400025,-71.130306,SA
IMPACT,,54 Washburn Avenue,Cambridge,MA,2140,,Middlesex,617-661-0405 x117,,617-661-5700,,http://www.northcharles.org,42.400025,-71.130306,SA
Prevention and Recovery Center,Mount Auburn Hospital,330 Mount Auburn Street,Cambridge,MA,2138,,Middlesex,617-499-5051 x4212,Intakes,617-499-5051,617-499-5052,http://www.mountauburnhospital.org,42.3739637,-71.1341246,SA
Addiction Treatment Center of NE,,77 Warren Street,Brighton,MA,2135,,Suffolk,617-254-1271,Intakes,617-254-1271 x119,617-254-1271 x110,http://www.atcne.net,42.3489571,-71.1426625,SA
Addiction Treatment Center of NE,Outpatient Counseling Program,77 Warren Street,Brighton,MA,2135,,Suffolk,617-254-1271,,617-254-1271 x119,,http://www.atcne.net,42.3489571,-71.1426625,SA
Column Health,,71 Washington Street,Brighton,MA,2135,,Suffolk,339-368-7696,,,844-265-8661,http://www.columnhealth.com,42.3441497,-71.1434088,SA
Granada House Inc,,70 Adamson Street,Allston,MA,2134,,Suffolk,617-254-2923,,,,http://www.granadahouse.org,42.3580235,-71.1339995,SA
SMOC,Serenity House,44 Wilson Street,Hopkinton,MA,1748,,Middlesex,508-435-9040,Intakes,508-435-9040 x202,508-435-9040 x208,http://www.smoc.org/serenity-house.php,42.2432518,-71.5156181,SA
Advocates Community Counseling,Harvard,257 Ayer Road,Harvard,MA,1451,,Middlesex,978-772-1846,Intakes,508-661-2038,978-391-5069,http://advocates.org/,42.5339605,-71.5771708,SA
Caspar Inc,Womanplace,11 Russell Street,Cambridge,MA,2140,,Middlesex,617-661-6020,,,,http://www.baycove.org,42.3923417,-71.1231795,SA
Column Health,,401 Highland Avenue,Somerville,MA,2144,,Middlesex,339-368-7696,,,844-265-8661,http://www.columnhealth.com,42.3959767,-71.1207601,SA
Arbour Counseling Services,,14 Fordham Road,Allston,MA,2134,,Suffolk,617-782-6460,,,,http://www.arbourhealth.com,42.351817,-71.127759,SA
Caspar Inc/New Day for,Preg and Postpartum Women,242 Highland Avenue,Somerville,MA,2143,,Middlesex,617-628-8188 x308,,617-628-8188,,http://www.baycove.org,42.3907334,-71.1096886,SA
Bournewood Hospital,Bournewood Health Systems,300 South Street,Chestnut Hill,MA,2467,,Middlesex,617-469-0300 x3302,Intakes,800-468-4358,617-469-0300 x3305,http://www.bournewood.com,42.2983204,-71.1493329,SA
Arbour Counseling Services,Substance Recovery Program,10 Roessler Road,Woburn,MA,1801,,Middlesex,781-932-8114,,,,http://www.arbourhealth.com,42.5107089,-71.1410214,SA
New Horizons Medical PC,,1180 Beacon Street,Brookline,MA,2446,,Norfolk,617-202-9222,,,,http://www.newhorizonsmedical.org,42.344372,-71.1148571,SA
Institute for Health and Recovery Inc,,349 Broadway,Cambridge,MA,2139,,Middlesex,617-661-3991,,,,http://www.healthrecovery.org,42.370362,-71.103364,SA
Healthcare Resource Center,,9 Forbes Road,Woburn,MA,1801,2103,Middlesex,781-838-6757,,,,http://www.csachelp.com,42.4950091,-71.1215269,SA
Middlesex Recovery PC,,20 Tower Office Park,Woburn,MA,1801,,Middlesex,781-305-3300,,,,http://,42.5019527,-71.1239926,SA
Caspar Inc,,3 Summit Avenue,Somerville,MA,2143,,Middlesex,617-776-6036,,,,http://www.casparinc.org,42.383625,-71.095391,SA
Caspar Inc,Mens Recovery Home,16 Highland Avenue,Somerville,MA,2143,,Middlesex,617-623-5277 x351,,,,http://www.casparinc.org,42.3845922,-71.0933031,SA
Brigham and Womens Faulkner Hosp,,1153 Centre Street,Jamaica Plain,MA,2130,,Suffolk,617-983-7474,,617-983-7060,,http://www.brighamandwomensfaulkner.org/programs-and-services/addiction-medicine/default.aspx,42.3016411,-71.1287817,SA
Boston Childrens Hospital,Adolescent Substance Abuse Program,300 Longwood Avenue,Boston,MA,2115,,Suffolk,617-355-2727,,,617-355-5433,http://childrenshospital.org/asap,42.3373982,-71.104968,SA
South Bay Mental Health Center,,22 Olde Canal Drive,Lowell,MA,1851,,Middlesex,978-453-6800,,,,http://,42.6232276,-71.350935,SA
Habit OPCO ,Lowell,22 Olde Canal Drive,Lowell,MA,1851,,Middlesex,978-452-5155 x201,,978-452-5155,,http://www.acadiahealthcare.com,42.6232579,-71.3509844,SA
Spectrum Health Systems Inc,Charles J Faris Recovery Center,155A Oak Street,Westborough,MA,1581,,Worcester,508-898-1570,Intakes,508-898-1570 x2100,508-898-1597 x2149,http://www.spectrumhealthsystems.com,42.2864878,-71.6267867,SA
New England Recovery Ctr (NERC),Detox Services,153 Oak Street,Westborough,MA,1581,,Worcester,844-800-6372,,,,http://www.newenglandtreatmentcenter.com,42.2862224,-71.6272243,SA
Spectrum Health Systems Inc,Clinical Support Services,154 Oak Street,Westborough,MA,1581,,Worcester,508-898-1570 x2197,Intakes,800-366-7732 x2213,508-898-1570 x2213,http://www.spectrumhealthsystems.org,42.2853361,-71.6274632,SA
Spectrum Health Systems Inc,Acute Treatment Services,154 Oak Street,Westborough,MA,1581,,Worcester,508-898-1570,,,,http://www.spectrumhealthsystems.org,42.2853361,-71.6274632,SA
Fenway Health,Substance Abuse Treatment Program,1340 Boylston Street,Boston,MA,2215,,Suffolk,617-267-0900,,617-927-6202,,http://www.fenwayhealth.org,42.3440365,-71.0988961,SA
Arbour Substance Abuse Trt Program,Detox,49 Robinwood Avenue,Jamaica Plain,MA,2130,,Suffolk,617-390-1204,,617-390-1320,,http://www.arbourhealth.com,42.315774,-71.112267,SA
Shiloh House,,5 Parley Vale ,Jamaica Plain,MA,2130,,Suffolk,857-273-3923,,857-273-3923 x267,,http://www.voamass.org/,42.3148541,-71.1112669,SA
Arbour Counseling Services,,157 Green Street,Jamaica Plain,MA,2130,,Suffolk,617-524-1120,Intakes,617-390-1320,617-390-1409,http://www.arbourhealth.com,42.310124,-71.106735,SA
Whittier Street Health Center,,1290 Tremont Street,Roxbury Crossing,MA,2120,,Suffolk,617-427-1000,Intakes,617-989-3127,617-989-3009,http://www.wshc.org,42.332571,-71.092825,SA
Eastern Middlesex Alcoholism Servs,Residential Rehab/Recovery House,12 Cedar Street,Malden,MA,2148,,Middlesex,781-321-2600,,781-321-2600 x23,,http://,42.4277033,-71.0762867,SA
Brookside Community Health Center,,3297 Washington Street,Jamaica Plain,MA,2130,,Suffolk,617-983-6047,,,,http://www.brighamandwomenshospital.org,42.3109211,-71.10403,SA
Dimock Center,John Flowers Recovery Home,50 Dimock Street,Roxbury,MA,2119,,Suffolk,617-442-8800 x1336,,,617-442-8800 x1334,http://www.dimock.org,42.3192728,-71.0977302,SA
Dimock CSS,Womens Renewal at Dimock,56 Dimock Street,Roxbury,MA,2119,,Suffolk,617-442-8800 x1535,,617-442-8800 x1622,,http://www.dimock.org,42.318961,-71.097433,SA
My Sisters House at Dimock,,56 Dimock Street,Roxbury,MA,2119,,Suffolk,617-442-8800 x1420,,617-442-8800 x1622,,http://www.dimock.org,42.318961,-71.097433,SA
Askia Academy at Dimock,,9 Notre Dame Street,Boston,MA,2119,,Suffolk,617-442-8800,,617-442-8800 x1652,,http://www.Dimock.org,42.3191673,-71.0960074,SA
Sullivan House,,65 Glen Road,Jamaica Plain,MA,2130,,Suffolk,617-524-4416,,,,http://,42.3082942,-71.1013326,SA
Victory Programs Inc,Living and Recovery Community,170 Morton Street,Jamaica Plain,MA,2130,,Suffolk,617-522-2936 x424,,617-522-2936 x401,,http://www.vpi.org,42.30041,-71.105673,SA
Pine Street Inn,,170 Morton Street,Jamaica Plain,MA,2130,,Suffolk,617-892-7937,,617-892-7893,,http://www.pinestreetinn.org,42.30041,-71.105673,SA
Revelations Talk Therapy LLC,,529 Main Street,Charlestown,MA,2129,1125,Suffolk,617-682-0823,,,,http://WWW.REVELATIONSTALKTHERAPY.COM,42.3847796,-71.071412,SA
Lemuel Shattuck Hospital,OBOT (Suboxone) Clinic,170 Morton Street,Jamaica Plain,MA,2130,,Suffolk,617-971-3893,,,617-971-3670,http://,42.3000728,-71.1018678,SA
Community Healthcare Inc,,170 Morton Street,Jamaica Plain,MA,2130,,Suffolk,617-541-3670,,617-541-3670 x0,,http://www.csachelp.com,42.299581,-71.1017916,SA
High Point Jamaica Plain at Shattuck,,170 Morton Street,Jamaica Plain,MA,2130,,Suffolk,857-273-4929,,617-834-9400,,http://www.hptc.org,42.299581,-71.1017916,SA
Victory Programs Inc,Womens Hope,170 Morton Street,Jamaica Plain,MA,2130,,Suffolk,617-442-0048 x302,,617-442-0048 x301,,http://www.vpi.org,42.299581,-71.1017916,SA
Dimock Substance Abuse Trt Service,Satellite,7 Palmer Street,Roxbury,MA,2119,,Suffolk,617-442-8800 x1284,,617-442-8800 x1289,,http://www.dimock.org,42.3303947,-71.0826993,SA
Victory Programs Inc,Victory House/Recovery Home,566 Massachusetts Avenue,Boston,MA,2118,,Suffolk,617-262-5032,,617-288-1272,,http://www.vpi.org,42.337837,-71.078488,SA
Banyan Treatment Center Mass LLC,,66 K Concord Street,Wilmington,MA,1887,,Middlesex,978-737-7272,,888-218-2347,,http://www.banyanmass.com,42.5588042,-71.1368634,SA
Fenway Health,Fenway South End,142 Berkeley Street,Boston,MA,2116,,Suffolk,617-247-7555,,617-927-6202,,http://www.fenwayhealth.org,42.3487138,-71.0722817,SA
Massachusetts General Hospital,Addiction Services,16 Blossom Street,Boston,MA,2114,,Suffolk,617-643-4699,Intakes,617-726-2712,617-726-7753,http://www.massgeneral.org/psychiatry/arms/home.aspx,42.361737,-71.067068,SA
SUPPORT Wellness,South End Community Health Center,1601 Washington Street,Boston,MA,2118,,Suffolk,617-587-1905,,,,http://www.sechc.org/,42.3383481,-71.0748939,SA
Volunteers of America,Mens Hello House,686 Massachusetts Avenue,Boston,MA,2118,,Suffolk,617-262-7142 x202,,617-262-7142,,http://www.voamass.org,42.3355664,-71.0754188,SA
Northeast Behavioral Health,,365 East Street,Tewksbury,MA,1876,,Middlesex,978-259-7000 x7005,Intakes,978-259-7021,978-259-7024,http://,42.612167,-71.216872,SA
Sheehan Womens Program,Lowell House Inc,365 East Street,Tewksbury,MA,1876,,Middlesex,978-640-0840,,,978-640-0839,http://www.lowellhouseinc.com,42.6121671,-71.2168703,SA
Middlesex Human Serv Agency Inc,Middlesex DUIL Program,365 East Street,Tewksbury,MA,1876,,Middlesex,978-863-0048,,,,http://www.mhsainc.org/duil,42.6121671,-71.2168703,SA
Conexiones CSS,,365 East Street,Tewksbury,MA,1876,,Middlesex,857-293-2005,,,,https://www.casaesperanza.org/,42.6121671,-71.2168703,SA
Tewksbury Treatment Center,Lahey Health Behavioral Services,365 East Street,Tewksbury,MA,1876,,Middlesex,978-259-7000,Intakes,978-259-7021,978-259-7024,http://www.nebhealth.org,42.6121671,-71.2168703,SA
Lowell House Inc,Mens Recovery Home,365 East Street,Tewksbury,MA,1876,,Middlesex,978-459-3371,,,,http://www.lowellhouseinc.org,42.6121671,-71.2168703,SA
Institute for Health and Recovery Inc,Boston,95 Berkeley Street,Boston,MA,2116,,Suffolk,617-849-6994,,617-661-3991,,http://www.healthrecovery.org,42.347285,-71.0705,SA
MGH Add Recov Management Servs,,151 Merrimas Street,Boston,MA,2114,,Suffolk,617-643-4699,,,,http://www.massgeneral.org/psychiatry/services/treatmentprograms.aspx?id=1945,42.364191,-71.0630784,SA
Lowell Community Health Center Inc,Behavioral Health Services Outpatient,161 Jackson Street,Lowell,MA,1852,,Middlesex,978-937-9700 x6730,Intakes,978-934-0164 x262,978-937-9448,http://www.lchealth.org,42.642182,-71.311467,SA
Hope House Inc,Outpatient,8 Farnham Street,Roxbury,MA,2119,,Suffolk,617-971-9360 x100,,617-971-9370,,http://www.hopehouseboston.org,42.3306045,-71.0744562,SA
Hope House Inc,Recovery Home,8 Farnham Street,Roxbury,MA,2119,,Suffolk,617-971-9360,,,,http://www.hopehouseboston.org,42.33045255,-71.07429964,SA
Boston Public Health Commission,Bureau of Recovery Services,774 Albany Street,Boston,MA,2118,,Suffolk,617-534-2730,Intakes,855-494-4057,617-534-5554,http://www.bphc.org/recovery,42.3338559,-71.0727591,SA
Boston Treatment Center,,784 Massachusetts Avenue,Boston,MA,2118,,Suffolk,617-247-1001,,,,http://www.nebhealth.org,42.3337245,-71.0726407,SA
Casa Esperanza Inc,Familias Unidas Outpatient Program,245 Eustis Street,Roxbury,MA,2119,,Suffolk,617-445-1123 x308,,617-445-1123 x300,,http://www.casaesperanza.org,42.3267926,-71.075081,SA
Casa Esperanza Inc,Latinas y Ninos Center,263 Eustis Street,Roxbury,MA,2119,,Suffolk,617-445-1123 x321,,617-445-1104 x321,,http://www.casaesperanza.org,42.3264779,-71.0746088,SA
AdCare Hospital,,14 Beacon Street,Boston,MA,2108,,Suffolk,617-227-2622,,,,http://www.adcare.com,42.3576657,-71.0623588,SA
Bridge Over Troubled Waters Inc,,47 West Street,Boston,MA,2111,,Suffolk,617-423-9575 x212,,617-423-9575,,http://www.bridgeotw.org,42.355009,-71.062956,SA
Casa Esperanza Inc,Casa Esperanzas Mens Program,291 Eustis Street,Boston,MA,2119,,Suffolk,617-445-1123 x111,,617-445-1123 x107,,http://www.casaesperanza.org,42.325946,-71.073865,SA
Institute for Health and Recovery Inc,Lowell,97 Central Street ,Lowell,MA,1852,,Middlesex,617-661-3991,,,,http://www.healthrecovery.org,42.6441422,-71.3086365,SA
Health Care Resource Centers,,23-27 Bradston Street,Boston,MA,2118,,Suffolk,617-318-6480,,,,http://www.hcrcenters.com,42.3329192,-71.0700656,SA
Boston Alcohol and Substance,Abuse Programs Inc,29 Winter Street,Boston,MA,2108,,Suffolk,617-482-5292,,,,http://www.bostonasap.org,42.356013,-71.061653,SA
Bay Cove Human Services,Methadone Services,66 Canal Street,Boston,MA,2114,,Suffolk,617-371-3030 x3085,,617-371-3030 x1,,http://www.baycove.org,42.363831,-71.0595,SA
Charlestown Recovery Home,,15 Bunker Hill Street,Charlestown,MA,2129,,Suffolk,617-242-0088,,,,http://www.gavinfoundation.org,42.376225,-71.056335,SA
Arbour Counseling Services,,10 Bridge Street,Lowell,MA,1852,,Middlesex,978-453-5736,,,,http://,42.645687,-71.30748,SA
Childrens Services of Roxbury,Recover Support Service,520 Dudley Street,Roxbury,MA,2119,2733,Suffolk,617-989-1093 x523,,617-989-9623,,http://www.csrox.org,42.3225768,-71.0725362,SA
Lowell House Inc,Outpatient Substance Abuse Services,555 Merrimack Street,Lowell,MA,1854,,Middlesex,978-459-8656,,,,http://www.lowellhouseinc.org,42.647397,-71.31714,SA
Boston Rescue Mission OP Counseling,,39 Kingston Street,Boston,MA,2111,,Suffolk,617-482-8819 x1215,,617-482-8819 x1238,,http://www.brm.org,42.353481,-71.059437,SA
Boston Comprehensive Trt Ctr,Habit OPCO,99 Topeka Street,Boston,MA,2118,,Suffolk,617-849-9572,,,,http://www.bostonctc.com,42.3335634,-71.0664443,SA
Eliot Community Human Services,,173 Chelsea Street,Everett,MA,2149,,Middlesex,781-388-6200,,781-388-6225,,http://www.eliotchs.org,42.4038921,-71.0489154,SA
Megans House,,32 Berry Road,Lowell,MA,1854,,Middlesex,978-455-6973,,,,http://themeganhouse.org,42.6528972,-71.3445929,SA
Victory Programs Inc,New Victories Recovery Home,9 Virginia Street,Dorchester,MA,2125,,Suffolk,617-825-6088 x501,Intakes,617-262-5032 x354,617-288-1272 x350,http://www.vpi.org,42.317262,-71.067089,SA
Addiction Services,Uphams Corner Health Committee,415 Columbia Road,Dorchester,MA,2125,,Suffolk,617-287-8000 x8325,,,,http://uphamscornerhealthcenter.org,42.311823,-71.0687657,SA
Gavin Foundation Inc,Cushing House/Male and Female Prg,54-58 Old Colony Avenue,Boston,MA,2127,,Suffolk,617-269-2933,Intakes,617-269-2933 x5,617-269-2933 x6,http://www.gavinfoundation.org,42.3362086,-71.0556267,SA
Mattapan Community Health Center,,1575 Blue Hill Avenue,Mattapan,MA,2126,,Suffolk,617-296-0061,,,,http://,42.2697988,-71.0940623,SA
Gavin Foundation Inc,Center for Recovery Services,210 Old Colony Avenue,Boston,MA,2127,,Suffolk,617-268-5000,,,,http://www.gavinfoundation.org,42.332957,-71.053771,SA
Victory Programs Inc,Shepherd House,"22, 24 and 26 Windermere Road",Dorchester,MA,2125,,Suffolk,617-288-3906,,617-288-3906 x354,,http://www.vpi.org,42.314014,-71.06246,SA
North Suffolk Mental Hlth Association,Meridian House,408 Meridian Street,Boston,MA,2128,,Suffolk,617-569-6050,,,,http://www.northsuffolk.org,42.38058955,-71.0392471,SA
After Care Services Inc,,2 Lexington Street,Boston,MA,2128,,Suffolk,617-569-4561,,617-561-4455,,http://,42.3772167,-71.039705,SA
Boston Hamilton House Inc,Hamilton Recovery Home,25 Mount Ida Road,Dorchester,MA,2122,,Suffolk,617-288-1584 x1005,,617-288-1584 x502,,http://www.gavinfoundation.org,42.3063401,-71.0653931,SA
Noddles Island Multi Service Agency,,301 Broadway,Chelsea,MA,2150,,Suffolk,617-889-3300,,888-294-7802,,http://www.northsuffolk.org,42.391088,-71.036655,SA
Rehabilitation and Health Inc,East Boston,52 White Street,Boston,MA,2128,,Suffolk,617-569-2089,,,,http://,42.38063737,-71.03744393,SA
North Suffolk Mental Hlth Association,,14 Porter Street,Boston,MA,2128,,Suffolk,617-912-7500,,888-294-7802,,http://www.northsuffolk.org,42.3748178,-71.0380175,SA
Interim House Inc,Recovery Home,62 Waldeck Street,Dorchester Center,MA,2124,,Suffolk,617-265-2636,,,,http://,42.2973332,-71.0670408,SA
BPHC Substance Abuse Prev and,Treatment Services Satellite,1226 Columbia Road,Boston,MA,2127,,Suffolk,617-534-9500,,,,http://www.bostonpublichealthcommission.org,42.3305767,-71.0492893,SA
Codman Square Health Center,Outpatient Substance Abuse Services,637 Washington Street,Boston,MA,2124,,Suffolk,617-825-9660,,617-822-8366,,http://www.codman.org,42.289384,-71.071349,SA
Dorchester House,,1353 Dorchester Avenue,Dorchester,MA,2122,,Suffolk,617-288-3230,,617-740-2212,,http://www.dothousehealth.org,42.304428,-71.059972,SA
Middlesex Human Serv Agency Inc,Answer House Recovery Home,5 G Street,Boston,MA,2127,,Suffolk,617-268-7124,,,,http://www.mhsainc.org,42.3361379,-71.0444607,SA
Independence Hall,Clinical Stabilization Services,59 South Street,Shrewsbury,MA,1545,,Worcester,508-845-6176,,508-439-9726,,http://www.recoverindependence.org/,42.292148,-71.699297,SA
Boston Public Health Commission,Entre Familia,209 River Street,Mattapan,MA,2126,,Suffolk,617-534-2922,,,,http://www.bphc.org,42.271593,-71.079111,SA
Transitions TSS,,201 River Street,Mattapan,MA,2126,,Suffolk,617-534-6163,Intakes,617-534-9159,617-534-9171,http://www.bphc.org,42.2716186,-71.0790073,SA
Gavin Foundation Inc,Gavin House,675 East 4th Street,Boston,MA,2127,,Suffolk,617-268-5517 x308,,617-268-5517 x301,,http://www.gavinfoundation.org,42.3345029,-71.0377906,SA
Health Care Resource Centers,,175 Crescent Avenue,Chelsea,MA,2150,,Suffolk,617-889-8779,,,,http://www.hcrcenters.com/,42.396243,-71.0232651,SA
Spectrum Health Systems Inc,Spectrum Outpatient Services,200 East Main Street,Milford,MA,1757,,Worcester,508-634-1877,Intakes,508-854-3320 x1161,800-464-9555 x1161,http://www.spectrumhealthsystems.org,42.150897,-71.501077,SA
Riverside Outpatient Center,Lynnfield,6 Kimball Lane,Lynnfield,MA,1940,,Essex,781-246-2010 x2071,,781-246-2010 x2043,,http://www.riversidecc.org,42.5095354,-71.0343553,SA
Bay State Community Services Inc,Ctr for Community Csl and Educ,32 Common Street,Walpole,MA,2081,,Norfolk,508-668-3223,,,,http://www.baystatecs.org,42.1437668,-71.2527812,SA
Spectrum Health Systems Inc,Spectrum/Saugus,184 Broadway Street,Saugus,MA,1906,,Essex,781-233-1095,,800-464-9555 x1161,,http://www.spectrumhealthsystems.org,42.490206,-71.0153032,SA
Spectrum Health Systems Inc,,40 Spruce Street,Leominster,MA,1453,,Worcester,978-466-3820,,508-854-3320,,http://www.spectrumhealthsystems.org/,42.5264363,-71.7552992,SA
Spectrum Health Systems Inc,Outpatient Services,585 Lincoln Street,Worcester,MA,1605,,Worcester,508-854-3320 x1166,,800-464-9555 x1161,,http://www.spectrumhealthsystems.org,42.2962808,-71.7689518,SA
Community Healthlink Inc,Orchard Street Program,17 Orchard Street,Leominster,MA,1453,,Worcester,978-537-3109,,617-661-3991,,http://www.communityhealthlink.org,42.52828215,-71.76507082,SA
South Shore Mental Health ,Outpatient,859 Willard Street,Quincy,MA,2169,,Norfolk,617-847-1909,Intakes,617-847-1914,617-847-1950,http://www.ssmh.org,42.2283203,-71.0324121,SA
Lynn Comprehensive Treatment Ctr,,11 Circle Avenue,Lynn,MA,1905,,Essex,781-836-4054,,,866-243-6535,http://www.crchealth.com,42.4533028,-70.958813,SA
Arbour Counseling Services,Franklin,38 Pond Street,Franklin,MA,2038,,Norfolk,508-528-6037 x18,,508-528-6037,,http://arbourhealth.com,42.0916889,-71.4263185,SA
Community Substance Abuse Centers,(CSAC),172 Newbury Street,Peabody,MA,1960,,Essex,978-535-9190,,,,http://www.csacmethadone.com/,42.5410893,-70.9872271,SA
New Horizons Medical,,500 Congress Street,Quincy,MA,2169,,Norfolk,617-481-6949,,,,http://,42.2346819,-71.0162163,SA
Community Healthlink Inc,FAITH House,142 Burncoat Street,Worcester,MA,1606,,Worcester,508-438-5625,,508-438-5626,,http://,42.295944,-71.790333,SA
AdCare Hospital,,1419 Hancock Street ,Quincy,MA,2169,,Norfolk,617-328-0639,,,,http://www.adcare.com,42.2492393,-71.0027418,SA
Project COPE Inc,Womens Residential,66 Johnson Street,Lynn,MA,1905,,Essex,781-584-8490,,781-584-8490 x1,,http://www.bridgewell.org,42.465919,-70.953334,SA
Project COPE Inc,Bridgewell,66 Johnson Street,Lynn,MA,1902,,Essex,781-584-8490,Intakes,781-584-8490 x1,781-584-8490 x2,http://www.bridgewell.org,42.4659431,-70.953316,SA
New Horizons Medical,,222 Blossom Street Extension,Lynn,MA,1901,,Essex,781-584-4645,,,,http://,42.4567743,-70.9506395,SA
Habit OPCO,Satellite,1515 Hancock Street,Quincy,MA,2169,,Norfolk,617-479-0102,,508-586-6300,,http://www.crchealth.com,42.2476346,-71.0017664,SA
Oxford Intensive OP Recovery Prog,,173 Oxford Street,Lynn,MA,1901,,Essex,781-268-1133,,,,http://www.oxfordiop.com/,42.4634523,-70.9473729,SA
South Shore Recovery Home,,10 Dysart Street,Quincy,MA,2169,,Norfolk,617-773-7023,,,,http://,42.246236,-70.9976949,SA
Fitchburg Comprehensive Trt Center,,155 Airport Road,Fitchburg,MA,1420,,Worcester,978-627-4182,,,,http://www.crchealth.com/,42.5646515,-71.7739713,SA
CleanSlate Centers,,280 Union Street,Lynn,MA,1901,,Essex,781-731-6804,,,,http://,42.4648656,-70.9429226,SA
Psychological Center,Pegasus House,482 Lowell Street,Lawrence,MA,1841,,Essex,978-687-4257,,617-661-3991,,http://www.psychologicalcenter.com,42.7019554,-71.1795474,SA
Advocates,Channing House,21 Catharine Street,Worcester,MA,1605,,Worcester,508-755-8088,,,,http://,42.2757949,-71.7926575,SA
Psychological Center,Womens View,582-584 Haverhill Street,Lawrence,MA,1841,,Essex,978-687-1658,,,,http://www.psychologicalcenter.com,42.7046162,-71.1820079,SA
Experience Wellness LLC,Satellite,121 Lincoln Street,Worcester,MA,1605,,Worcester,508-890-0990,,,,http://www.experiencewellnesscenters.com/,42.2771899,-71.7946405,SA
Project COPE Inc,Affiliate of Bridgewell Outpt SA Servs,66 Silsbee Street,Lynn,MA,1901,,Essex,781-581-9270,,781-581-9270 x4107,,http://www.bridgewell.org,42.4644229,-70.940269,SA
AdCare Hospital,Worcester,107 Lincoln Street,Worcester,MA,1605,,Worcester,508-799-9000,Intakes,800-252-6465 x3010,800-345-3552 x3010,http://www.adcare.com,42.2763289,-71.7948348,SA
Youth Opportunities Upheld Inc,Substance Abuse Services,81 Plantation Street,Worcester,MA,1604,,Worcester,508-849-5600 x408,Intakes,855-490-8462,800-435-9990,http://www.youinc.org/,42.256505,-71.7827286,SA
AdCare Outpatient,Worcester,95 Lincoln Street,Worcester,MA,1605,,Worcester,508-453-3053,Intakes,508-453-3056,,http://www.adcare.com,42.2754131,-71.7954857,SA
Lawrence Comprehensive Trt Ctr,,10 Embankment Street,Lawrence,MA,1841,,Essex,978-297-6179,,,,http://www.nemassctc.com/location/lawrence/,42.702455,-71.169085,SA
Lahey Health Behavioral Services,Ryan House,100 Green Street,Lynn,MA,1902,,Essex,781-593-9434 x228,Intakes,781-593-9434 x226,781-593-9434 x219,http://,42.4651483,-70.937202,SA
Lahey Health Behavioral Services,TSS,110 Green Street,Lynn,MA,1902,,Essex,781-593-9434 x212,,781-593-9434 x219,,http://www.nebhealth.org,42.465057,-70.936992,SA
CAC Worcester LLC,Substance Abuse Program,51 Union Street,Worcester,MA,1608,,Worcester,508-756-2005,,,,http://,42.2696115,-71.7978796,SA
Northeast Addictions Treatment Ctr,,604 Washington Street,Quincy,MA,2169,,Norfolk,800-218-1734,,,,http://www.neaddictions.com/,42.2468893,-70.9764594,SA
Multicultural Wellness Center Inc,,250 Commercial Street,Worcester,MA,1608,,Worcester,508-752-4665,Intakes,508-752-4665 x200,508-752-4665 x201,http://multiculturalwellness.org,42.2632,-71.800383,SA
South Bay Community Services,,340 Main Street,Worcester,MA,1608,,Worcester,508-791-4976 x1253,,508-427-5362,,http://www.southbaycommunityservices.com,42.2653091,-71.8021009,SA
Hector Reyes House,,27 Vernon Street,Worcester,MA,1610,,Worcester,508-459-1801,,,,http://www.lahaworc.org,42.252987,-71.796087,SA
Worcester LUK Site,,40 Southbridge Street,Worcester,MA,1608,,Worcester,508-762-3000,Intakes,978-829-2222,800-579-0000,http://www.luk.org,42.260392,-71.803395,SA
Spectrum Health Systems Inc,Outpatient Services,105 Merrick Street,Worcester,MA,1609,,Worcester,508-797-6100,Intakes,800-464-9555 x1161,508-831-0045 x1161,http://www.spectrumhealthsystems.org,42.26598923,-71.81316218,SA
Lahey Health Behavioral Services,Residential Adolescent Program,111 Middleton Road,Danvers,MA,1923,,Essex,978-739-7615,,,,http://www.nebhealth.org,42.586803,-70.97731,SA
Lahey Health Behavioral Services,Methadone Program,111 Middleton Road,Danvers,MA,1923,,Essex,978-739-7664,,978-739-7677,,http://www.nebhealth.org,42.5866809,-70.9767743,SA
NBH DBA Lacey Health Behavioral,Services Detoxification Unit,111 Middleton Road,Danvers,MA,1923,,Essex,978-777-2121,,978-777-2121 x675,,http://www.nebhealth.org,42.5866809,-70.9767743,SA
Lahey Health Behavioral Services,CSS Program,111 Middleton Road,Danvers,MA,1923,,Essex,978-739-7621,,,978-739-7659,http://www.nebhealth.org,42.5866809,-70.9767743,SA
Community Healthlink Inc,Highland Grace House,280 Highland Street,Worcester,MA,1602,,Worcester,508-860-1172,,,,http://www.communityhealthlink.org,42.2703403,-71.8190438,SA
Passages Program,,12 Queen Street,Worcester,MA,1610,,Worcester,508-860-1142,,508-860-1298,,http://www.communityhealthlink.org,42.2597825,-71.8138,SA
Thayer TSS,,12 Queen Street,Worcester,MA,1610,,Worcester,774-312-2400,Intakes,508-860-1298,508-438-5662,http://www.communityhealthlink.org,42.2597825,-71.8138,SA
Day Street LUK Site,,99 Day Street,Fitchburg,MA,1420,,Worcester,978-345-0685,,,,http://www.luk.org,42.584677,-71.794296,SA
Community Healthlink Inc,Detoxification Program,12 Queen Street,Worcester,MA,1610,,Worcester,508-860-1237,,508-860-1200,,http://www.communityhealthlink.org,42.259911,-71.814511,SA
Community Healthlink Inc,,72 Jaques Avenue,Worcester,MA,1610,,Worcester,508-860-1260,,508-421-4411,,http://www.communityhealthlink.org,42.259774,-71.814455,SA
Motivating Youth Recovery Program,,26 Queen Street,Worcester,MA,1610,,Worcester,508-860-1244,,,,http://WWW.COMMUNITYHEALTHLINK.ORG,42.2592515,-71.8146546,SA
Groups Recover Together,,266 Main Street,Nashua,NH,3060,,Hillsborough,800-683-8313,,,,http://www.joingroups.com,42.7556574,-71.4629526,SA
Catholic Charities,Family Counseling and Guidance Ctr,152 Sylvan Street,Danvers,MA,1923,,Essex,978-774-6820,,,,http://www.ccab.org,42.5493042,-70.9451598,SA
Catholic Charities,Crozier House,10 Hammond Street,Worcester,MA,1610,,Worcester,508-860-2216,,508-860-2251,,http://www.ccworc.org,42.25374,-71.813862,SA
Multicultural Wellness Center Inc,,515 Main Street,Fitchburg,MA,1420,,Worcester,978-343-3336,Intakes,508-752-4665 x200,508-752-4665 x201,http://multiculturalwellness.org,42.583411,-71.799916,SA
Inn Transition,,42 Washington Street,Peabody,MA,1960,,Essex,978-531-9951 x102,,,,http://www.citizensinn.org,42.5219165,-70.9248185,SA
Youth Council,Substance Abuse Treatment,112 West Pearl Street,Nashua,NH,3060,,Hillsborough,603-889-1090,,,,http://www.theyouthcouncil.org,42.7596025,-71.4666076,SA
CleanSlate Centers,Worcester,411 Chandler Street,Worcester,MA,1602,,Worcester,413-341-1787,,,,http://www.cleanslatecenters.com,42.2639116,-71.8327997,SA
Counseling Center of Nashua,,1 Main Street,Nashua,NH,3064,,Hillsborough,603-883-0005,Intakes,603-689-7890,603-689-7644,http://www.counselingcenter.com/,42.7652938,-71.4680145,SA
South Middlesex Opportunity Council,Rhodes to Recovery,5 Rhodes Street,Millbury,MA,1527,,Worcester,508-581-7821,,,,http://www.smoc.org,42.18234,-71.768998,SA
Jeremiahs Inn Inc,Jeremiahs Inn,1059 Main Street,Worcester,MA,1603,,Worcester,508-755-6403,,508-755-6403 x20,,http://www.jeremiahsinn.com,42.2450986,-71.8312675,SA
Steward Good Samaritan,NORCAP/ATS,71 Walnut Street,Foxboro,MA,2035,,Norfolk,508-543-1873,,800-331-2900 x2,,http://,42.049705,-71.240881,SA
McLean Fernside,,162 Mountain Road,Princeton,MA,1541,,Worcester,978-464-2141,,,,http://www.mcleanhospital.org/programs/mclean-fernside/landing,42.467989,-71.8841957,SA
LUK Crisis Center Inc,LUK Behavioral Health Clinic,545 Westminster Street,Fitchburg,MA,1420,,Worcester,978-345-0685,Intakes,978-829-2312,800-579-0000,http://www.luk.org,42.565868,-71.845396,SA
Gosnold Counseling Center,,909 Sumner Street,Stoughton,MA,2072,,Plymouth,508-584-5190,Intakes,800-444-1554,508-540-6550,http://gosnold.org/,42.1007161,-71.0818113,SA
Spectrum Health Systems Inc,,15 Winter Court,Weymouth,MA,2188,,Norfolk,781-331-0690,,,,http://,42.2009258,-70.9487953,SA
South Bay Community Services,,541 Main Street,South Weymouth,MA,2190,,Norfolk,781-331-7866,,,,http://,42.1879545,-70.9559183,SA
Square Medical Group,Weymouth Primary Care and Csl,884 Washington Street,East Weymouth,MA,2189,,Norfolk,781-812-1643,,,,http://www.squaremedicalgroup.org/,42.2005495,-70.9409802,SA
Recovery Centers of America ,Wesminster CSS,9 Village Inn Road,Westminster,MA,1473,,Worcester,978-571-1700,,,,http://recoverycentersofamerica.com/,42.5430321,-71.8790129,SA
Recovery Centers of America ,Westminster ATS,9 Village Inn Road,Westminster,MA,1473,,Worcester,978-571-1700,,,,http://recoverycentersofamerica.com/,42.5430321,-71.8790129,SA
Spectrum Health Systems Inc,CSS/ATS,861 Main Street,South Weymouth,MA,2190,,Norfolk,781-331-3709 x6207,Intakes,781-331-3709 x6227,781-331-3709 x6221,http://www.spectrumhealthsystems.org,42.175691,-70.9560058,SA
Spectrum Health Systems Inc,Project Turnabout,861 Main Street,South Weymouth,MA,2190,,Norfolk,781-331-3709 x6207,,,,http://www.spectrumhealthsystems.org,42.175691,-70.9560058,SA
North Shore Counseling Center,,900 Cummings Center,Beverly,MA,1915,,Essex,978-922-2280,,,,http://www.nscc-inc.com,42.5586805,-70.8873532,SA
Discovery House of,Woonsocket Comprehensive Trt Ctr,1625 Diamond Hill Road,Woonsocket,RI,2895,,Providence,401-324-4040,,,,http://www.discoveryhouse.com,42.0152503,-71.4765479,SA
EMH Recovery Inc,Edwina Martin Recovery House,678 North Main Street,Brockton,MA,2301,,Plymouth,508-583-0493,,,,http://www.edwinamartinhouse.org,42.10090014,-71.02127688,SA
CCA formerly NRICS,Outpatient,55 John A Cummings Way,Woonsocket,RI,2895,,Providence,401-235-7000,,401-235-7121,,http://www.communitycareri.org,42.0083132,-71.5048795,SA
Greater Nashua Council on Alcoholism,Cynthia Day Family Center,615 Amherst Street,Nashua,NH,3063,,Hillsborough,603-881-4848,,603-881-4848 x3100,,http://www.keystonehall.org,42.801459,-71.537817,SA
Greater Nashua Council on Alcoholism,Keystone Hall,615 Amherst Street,Nashua,NH,3063,,Hillsborough,603-881-4848 x3111,,603-881-4848 x3100,,http://www.keystonehall.org,42.8023036,-71.5385899,SA
Merrimack River Medical Services,,323 Derry Road,Hudson,NH,3051,,Hillsborough,603-595-3399,,,,http://www.csachelp.com,42.818423,-71.414576,SA
Bay Cove Human Services,New Hope Transition Support Prog,61 Redfield Road,South Weymouth,MA,2190,,Norfolk,617-878-2550,,617-878-2550 x2574,,http://www.baycove.org,42.15643,-70.9408829,SA
New Beginnings Wellness Center Inc,,803 Main Street,Leicester,MA,1524,,Worcester,508-892-5500,,,,http://www.newbeginningswc.com/our-services,42.2456938,-71.8966727,SA
Community Care Alliance,,245 Main Street,Woonsocket,RI,2895,,Providence,401-235-6069,,401-235-7121,,http://communitycarealliance.com/,42.003653,-71.5125344,SA
Luminosity Bakari Program,,157 Main Street,Brockton,MA,2301,,Norfolk,781-344-0102 x112,,781-344-0102,,http://www.luminosityma.org,42.0823932,-71.0203486,SA
South Bay Community Services,,103 Commercial Street,Brockton,MA,2302,,Plymouth,508-580-4691,Intakes,508-427-5362,800-244-4691,http://www.southbaycommunityservices.com,42.0828739,-71.0156867,SA
Gandara Mental Health Center,Brockton Outpatient Clinic,142 Crescent Street,Brockton,MA,2302,,Plymouth,508-232-6670 x530,,508-232-6670,,http://,42.0814281,-71.0159243,SA
Sunspire Health Spring Hill,,250 Spring Hill Road,Ashby,MA,1431,,Middlesex,978-913-2509,Intakes,978-386-7100,866-682-9355,http://sunspirehealth.com/,42.668395,-71.850264,SA
SBH Haverhill LLC,,61 Brown Street,Haverhill,MA,1830,,Essex,978-641-3001 x547,,855-855-9199,,http://,42.764185,-71.046341,SA
Old Colony YMCA,Mental Health Clinic,891 Montello Street,Brockton,MA,2301,,Plymouth,508-427-4383,,,,http://www.oldcolonyymca.org,42.0680262,-71.0152413,SA
Holy Family Hospital,4 East,140 Lincoln Avenue,Haverhill,MA,1830,,Essex,978-420-1156,,,,http://www.holyfamily-hospital.org/,42.7648887,-71.0447859,SA
ROAD to a Better Life,,2 Mound Court,Merrimack,NH,3054,,Hillsborough,603-423-0207,Intakes,603-841-2307,603-841-2317,http://www.roadtoabetterlifenh.com,42.8392021,-71.4923067,SA
CASTLE,High Point Youth,20 Meadowbrook Road,Brockton,MA,2301,,Plymouth,508-638-6000,,508-638-6003,,http://www.castlekids.org,42.0578704,-71.0093689,SA
Mens Addiction Treatment Center,,10 Meadowbrook Road,Brockton,MA,2301,,Plymouth,508-742-4400,,774-213-8400,,http://www.hptc.org,42.0576753,-71.0087273,SA
Brockton Addiction Treatment Center,,30 Meadowbrook Road,Brockton,MA,2302,,Plymouth,508-584-9210,,,800-734-3444,http://www.hptc.org,42.057098,-71.0095974,SA
High Point Opioid Treatment Prog,,30 Meadowbrook Road,Brockton,MA,2301,,Plymouth,508-408-6190,,,508-408-6180,http://hptc.org,42.057098,-71.009597,SA
Spectrum Health Systems Inc,,100 Plaistow Road,Haverhill,MA,1830,,Essex,978-373-4985,,800-464-9555 x1161,,http://www.spectrumhealthsystems.org/,42.8145703,-71.1044405,SA
Counseling Center of Nashua,,50 Nashua Road,Londonderry,NH,3053,,Rockingham,603-432-3033,Intakes,603-689-7890,603-689-7644,http://,42.8651003,-71.3503664,SA
Arbour Counseling Services,,384 Washington Street,Norwell,MA,2061,,Plymouth,781-871-6550 x22,,781-871-6550 x18,,http://www.arbourhealth.com,42.1584065,-70.8595483,SA
North Cottage Program Inc,Halfway House,69 East Main Street,Norton,MA,2766,,Bristol,508-285-2701,,508-285-2701 x129,,http://www.northcottageprogram.com,41.97014641,-71.18080277,SA
Bresnahan and Ball Counseling Servs,Substance Abuse Outpatient,1 Commons Drive,Londonderry,NH,3053,,Rockingham,603-965-6477,,,,http://www.bresnahanandballcounselingservices.com,42.868808,-71.349435,SA
Arbour Fuller Hospital,Outpatient Program,200 May Street,Attleboro,MA,2703,,Bristol,508-761-8500,,800-222-2237,,http://www.arbourhealth.com,41.9364439,-71.2844793,SA
GAAMHA Inc,Pathway House,171 Graham Street,Gardner,MA,1440,,Worcester,978-632-4574,,,978-632-4573,http://www.gaamha.org,42.579566,-71.995751,SA
Hampstead Hospital,,218 East Road,Hampstead,NH,3841,,Rockingham,603-329-5311,,,,http://www.hampsteadhospital.com,42.8716716,-71.1541805,SA
CLM Behavioral Health,Adults,10 Tsienneto Road,Derry,NH,3038,,Rockingham,603-434-1577,,,,http://www.centerforlifemanagement.org,42.901754,-71.319202,SA
Harrington Hospital OP Services,Satellite Location,367 East Main Street,East Brookfield,MA,1515,,Worcester,508-765-2725,,508-765-2725 x309,,http://,42.2278798,-72.0408102,SA
Addiction Recovery Institute,,31 North Union Street,Pawtucket,RI,2860,,Providence,401-725-2520,Intakes,401-725-2520 x103,401-226-8922,http://www.methadone.com,41.878729,-71.385749,SA
Community Care Alliance,Residential Substance Abuse Trt,80 Summit Street,Pawtucket,RI,2860,,Providence,401-235-7433,,401-235-7121,,http://www.communitycareri.org,41.875554,-71.378669,SA
Harrington Hospital OP Services,Satellite Location,161 West Main Street,Dudley,MA,1571,,Worcester,508-943-2944,,508-765-2725 x309,,http://,42.0421758,-71.9076926,SA
Center for Treatment and Recovery,,82 Pond Street,Pawtucket,RI,2860,4462,Providence,401-727-1287 x105,,401-727-1287,,http://www.methadoneri.com,41.871785,-71.3766009,SA
Gateway Healthcare Inc,PACS,105 Bacon Street,Pawtucket,RI,2860,,Providence,401-726-8080,,401-729-8701,,http://www.gatewayhealth.org,41.87146,-71.36727,SA
High Point Treatment Center Inc,Outpatient Clinic,4 Post Office Square,Taunton,MA,2780,,Bristol,508-823-5291,,,,http://www.hptc.org,41.902045,-71.0944936,SA
Community Csl of Bristol County,Behavioral Health Adult Counseling,1 Washington Street,Taunton,MA,2780,,Bristol,508-828-9116,,,,http://www.comcounseling.org,41.9006623,-71.098632,SA
Family Center for Csl and Educ,,5 Post Office Square,Taunton,MA,2780,,Bristol,508-822-4027,,617-770-9690 x2,,http://www.voamass.org,41.9015476,-71.0944441,SA
Clinical Services of Rhode Island,,600 Putnam Pike,Greenville,RI,2828,,Providence,401-949-2220,,,,http://www.clinicalservicesri.com,41.872881,-71.556157,SA
Link House Inc,,37 Washington Street,Newburyport,MA,1950,,Essex,978-462-7341,,,,http://www.linkhouseinc.org,42.81134226,-70.87752872,SA
Taunton Comprehensive Trt Ctr,,66 Main Street,Taunton,MA,2780,,Bristol,508-980-2149,,,508-880-1598,http://www.habitopco.com,41.9018476,-71.0899356,SA
Butler Hospital,Alcohol and Drug Treatment Services,345 Blackstone Boulevard,Providence,RI,2906,,Providence,401-455-6214,,,844-401-0111,http://www.butler.org,41.8462,-71.386671,SA
Lahey Health Behavioral Services,Opioid Treatment Program,298 Washington Street,Gloucester,MA,1930,,Essex,978-283-0296 x201,,978-283-0296 x213,,http://www.nebhealth.org,42.6252131,-70.6806526,SA
Addison Gilbert Hospital,Discover Program,298 Washington Street,Gloucester,MA,1930,,Essex,978-381-7422,,,,http://www.NebHealth.org,42.6252131,-70.6806526,SA
Continuum Behavioral Health,Symmetry SA IOP,200 Butler Drive,Providence,RI,2906,,Providence,401-437-8070,,,401-294-6170,http://,41.8421491,-71.3809715,SA
Farnum Center,,140 Queen City Avenue,Manchester,NH,3103,,Hillsborough,603-622-3020,,,888-840-4243,http://www.farnumcenter.org,42.9728914,-71.467261,SA
Providence Center,Adult Behavioral Services,530 North Main Street,Providence,RI,2904,,Providence,401-528-0110,,401-276-4020,,http://providencecenter.org/,41.8363836,-71.410182,SA
CODAC North Main,,528 North Main Street,Providence,RI,2904,,Providence,401-808-6278,,,,http://codacinc.org,41.8363487,-71.4101768,SA
Roger Williams Medical Center,Detox Unit ,825 Chalkstone Avenue,Providence,RI,2908,,Providence,401-456-2457,Intakes,401-456-3443,401-456-4807,http://www.rwmc.org,41.8351848,-71.4355921,SA
Roger Williams Medical Center,Addiction Services Center,877 Chalkstone Avenue,Providence,RI,2908,,Providence,401-456-2362,,,401-456-3500,http://www.rwmc.org,41.8335443,-71.4365699,SA
Manchester Metro Treatment Center,,228 Maple Street,Manchester,NH,3103,,Hillsborough,603-622-5005,,,,http://www.methadonetreatment.com,42.9809595,-71.4529996,SA
Veterans Affairs Medical Center,Collaborative Add and Recovery Prog,830 Chalkstone Avenue,Providence,RI,2908,,Providence,401-273-7100 x2610,Intakes,401-457-3400,401-457-3083,http://www.providence.va.gov/,41.8323154,-71.4340067,SA
Phoenix Houses of New England,Womens Residential Program,205 Waterman Street,Providence,RI,2906,,Providence,401-421-5255 x96402,,401-421-5255 x6151,,http://www.phoenixhouse.org,41.828054,-71.390315,SA
Phoenix House of NE Outpatient Ctr,,99 Wayland Avenue,Providence,RI,2906,,Providence,401-421-5255 x3272,Intakes,401-331-4250,401-441-6107,http://,41.8265231,-71.3882732,SA
Spectrum Health Systems Inc,,176 Main Street,Southbridge,MA,1550,,Worcester,508-765-5940,Intakes,508-854-3320 x1156,508-765-5940 x5204,http://www.spectrumhealthsystems.org,42.071155,-72.023588,SA
Harrington Memorial Hospital,Recovery Services,176 Main Street,Southbridge,MA,1550,,Worcester,508-765-2725,,508-765-2725 x309,,http://www.harringtonhospital.org,42.074344,-72.031125,SA
Serenity Place,NCADD Affiliate,101 Manchester Street,Manchester,NH,3101,,Hillsborough,603-625-6980,,,,http://www.serenity-place.org,42.990132,-71.461047,SA
Manchester Comprehensive Trt Ctr,,20 Market Street,Manchester,NH,3101,,Hillsborough,603-244-3163,,,603-622-9382,http://www.Acadiahealthcare.com,42.9902196,-71.4638398,SA
Family Service of Rhode Island,,55 Hope Street,Providence,RI,2906,,Providence,401-331-1350,Intakes,401-519-2280,401-294-6138 x3162,http://www.familyserviceri.org,41.82019,-71.39534,SA
Tri County Comm Action Agency,,1126 Hartford Avenue,Johnston,RI,2919,,Providence,401-351-2750,Intakes,401-351-2750 x1940,401-626-3440,http://,41.8220818,-71.4860086,SA
Groups Recover Together,,50 Bridge Street,Manchester,NH,3101,,Hillsborough,800-683-8313,,,,http://www.joingroups.com,42.9951385,-71.4614769,SA
James J Foster Associates Ltd,,540 Chestnut Street,Manchester,NH,3101,,Hillsborough,603-668-7744,,,,http://www.counselingnh.com,42.9964389,-71.461427,SA
Counseling Center of Nashua,,148 Coolidge Avenue,Manchester,NH,3102,,Hillsborough,603-627-3111,Intakes,603-689-7890,603-689-7644,http://www.counselingcenter.com/,42.995908,-71.4763624,SA
CODAC Behavioral Healthcare,East Bay,850 Waterman Avenue,East Providence,RI,2914,,Providence,401-434-4999,,,,http://www.codacinc.org,41.812961,-71.34999,SA
NH Div Alc/Drug Abuse Prev and,Recovery/Tirrell Halfway House,15 Brook Street,Manchester,NH,3104,,Hillsborough,603-836-5145,,,603-836-5450,http://www.serenityplace.org,42.9997397,-71.4633137,SA
Strive Health of Manchester,,1750 Elm Street ,Manchester,NH,3104,,Hillsborough,603-566-5521,,,,http://www.strivecares.com,43.0038085,-71.4658531,SA
CODAC Providence,,349 Huntington Avenue,Providence,RI,2909,,Providence,401-942-1450,,,,http://www.codacinc.org,41.80644,-71.441643,SA
Commons at WestBridge,Residential,- - -,Manchester,NH,3104,,Hillsborough,603-634-4446,,800-889-7871,,http://www.westbridge.org,43.0089,-71.4405,SA
McLean Ambulatory and Residential,Treatment Center at Naukeag,221 North Main Street,Petersham,MA,1366,,Franklin,800-230-8764,,,978-827-5115,http://www.mcleanhospital.org/programs/ambulatory-treatment-center-naukeag,42.5178569,-72.1835271,SA
MAP Behavioral Health Services Inc,,66 Burnett Street,Providence,RI,2907,,Providence,401-785-0050,,,,http://,41.8027698,-71.4269136,SA
Journey to Hope Hlth and Healing Inc,,985 Plainfield Street,Johnston,RI,2919,,Providence,401-946-0650 x131,,401-946-0650,,http://www.thejourneyhhh.com,41.80467,-71.467153,SA
Providence Center,Intensive Outpatient/Substance Abuse,134 Thurber Avenue,Providence,RI,2905,,Providence,401-276-4020,,,,http://providencecenter.org/,41.7998146,-71.4052339,SA
Discovery House of,Providence Comprehensive Trt Ctr,66 Pavilion Avenue,Providence,RI,2905,,Providence,401-217-4768,,,,http://www.discoveryhouse.com,41.7983244,-71.4034423,SA
East Bay Center,Substance Abuse Services,610 Wampanoag Trail,Riverside,RI,2915,,Providence,401-431-9870,Intakes,401-246-1195 x2,401-246-1195 x188,http://www.ebcap.org,41.7910935,-71.3366741,SA
Journey to Hope Health and Healing,,160 Narragansett Avenue,Providence,RI,2907,,Providence,401-941-4488,,,,http://www.thejourneyhhh.com/,41.789321,-71.423349,SA
CODAC Cranston,Outpatient Drug Free,1052 Park Avenue,Cranston,RI,2910,,Providence,401-461-5056,,,,http://www.codacinc.org,41.7820361,-71.4445374,SA
Green Valley Counseling,,7 Beeches Lane,Woodstock,CT,6281,,Windham,508-909-6986,,774-230-3432,,http://www.bgaumondtherapy.com,41.932132,-71.932328,SA
Community Health Resources,Putnam Center,391 Pomfret Street,Putnam,CT,6260,,Windham,877-884-3571,,,,http://www.chrhealth.org,41.9081189,-71.9178022,SA
Monadnock Family Services,,9 Vose Farm Road,Peterborough,NH,3458,,Hillsborough,603-924-7236,,,,http://,42.9126669,-71.9368863,SA
East Bay Center Inc,,2 Old County Road,Barrington,RI,2806,,Bristol,401-246-1195,,401-246-1195 x100,,http://www.eastbaycenter.org,41.754295,-71.326688,SA
Clinical and Support Options,Satellite,491 Main Street,Athol,MA,1331,,Worcester,978-249-9490 x4005,,978-249-9490,,http://www.csoinc.org,42.5939108,-72.2300874,SA
Cornerstone Recovery,,59 South Street,Ware,MA,1082,,Hampshire,413-758-4050,,,,https://gandaracenter.org/,42.2561773,-72.2411427,SA
Bridgemark Inc,,2020 Elmwood Avenue,Warwick,RI,2888,,Kent,401-781-2700,,,,http://www.bridgemark.org,41.752517,-71.423041,SA
CleanSlate Centers,,83 South Street,Ware,MA,1082,,Hampshire,413-341-1787,,,,http://www.cleanslatecenters.com,42.2535952,-72.2411578,SA
Behavioral Health Network Inc,Valley Human Services,96 South Street,Ware,MA,1082,,Hampshire,413-967-6241,,,,http://www.bhninc.org/,42.2521402,-72.2417225,SA
South Bay Community Services,,463 Swansea Mall Drive,Swansea,MA,2777,,Bristol,508-324-0328,Intakes,800-244-4691,508-427-5362,http://www.southbaycommunityservices.com,41.760859,-71.218157,SA
Providence Center,Roads to Recovery Program/Mens,111 Howard Avenue,Cranston,RI,2920,,Providence,401-462-1020,,401-276-4020,,http://providencecenter.org/,41.7446816,-71.4632556,SA
Insight Medical Group LLC,,428 Lafayette Road,Hampton,NH,3842,,Rockingham,978-267-1193,,,603-395-1724,http://www.insightmedicalgroup.com,42.9406906,-70.838427,SA
Bay State Community Services Inc,,36 Cordage Park Circle,Plymouth,MA,2360,7332,Plymouth,508-830-3444 x331,,508-830-3444,,http://www.baystatecs.org,41.9786197,-70.6861816,SA
SSTAR of Rhode Island Inc,SSTARBirth,80 East Street,Cranston,RI,2920,,Providence,401-463-6001,,,,http://www.sstar.org,41.737658,-71.463714,SA
Addiction Recovery Institute,South,205 Hallene Road,Warwick,RI,2886,,Kent,401-737-4788,,,401-226-8922,http://www.methadone.com,41.733661,-71.427843,SA
United Services Inc,Addiction Recovery Services,1007 North Main Street,Dayville,CT,6241,,Windham,860-774-2020,,,,http://www.unitedservicesct.org,41.83386706,-71.8772635,SA
Quinebaug Day Treatment Center,,11 Dog Hill Road,Dayville,CT,6241,,Windham,860-779-0321,,,,http://www.natchaug.org,41.832562,-71.87579,SA
South Bay Community Services,Outpatient,50 Aldrin Road,Plymouth,MA,2360,,Plymouth,508-830-0000 x1406,,508-427-5362,,http://www.southbaycommunityservices.com,41.9571652,-70.6928807,SA
Natchaug Hospital Inc,Joshua Center Northeast,934 North Main Street,Danielson,CT,6239,,Windham,860-779-2101,,,,http://,41.8287911,-71.877098,SA
AdCare Hospital,Warwick,400 Bald Hill Road,Warwick,RI,2886,,Kent,401-732-1500,,,,http://www.adcare.com,41.7237662,-71.476944,SA
Phoenix House of New England,Dublin Center/Adult Residential,3 Pierce Road,Dublin,NH,3444,,Cheshire,603-563-8501 x94555,Intakes,603-563-8501 x1,603-563-8501 x94570,http://www.phoenixhouse.org/locations/new-hampshire/phoenix-house-dublin-center/,42.89262835,-72.04125635,SA
High Point Treatment Center Inc,Outpatient Program,2 School Street,Plymouth,MA,2360,,Plymouth,508-830-1234,,508-830-1234 x0,,http://www.hptc.org,41.95739786,-70.66676274,SA
Community Health Resources,Danielson Clinic,77 Westcott Road,Danielson,CT,6239,,Windham,877-884-3571,,,,http://www.chrhealth.org,41.8093599,-71.8753467,SA
Outpatient Services,,13 Water Street,Danielson,CT,6239,,Windham,860-779-5852,,860-450-0151,,http://www.perceptionprograms.org,41.8049673,-71.8854406,SA
Arbour Counseling Services,,1082 Davol Street,Fall River,MA,2720,1108,Bristol,508-678-2833,,,,http://arbourhealth.com,41.718416,-71.154937,SA
Medical Assisted Recovery Inc,,875 Centerville Road,Warwick,RI,2886,,Kent,401-615-8500,,,,http://www.medicalassistedrecovery.com,41.697962,-71.491612,SA
SSTAR,Alcoholism/Drug Detox Program,386 Stanley Street,Fall River,MA,2720,,Bristol,508-324-3500 x3265,Intakes,508-324-7763 x3258,800-937-3610,http://www.sstar.org,41.7151566,-71.1363158,SA
SSTAR,Chemical Dependency Services/Outpt,386 Stanley Street,Fall River,MA,2720,,Bristol,508-324-3500,Intakes,508-679-5222 x3247,800-937-3610,http://www.sstar.org,41.7151566,-71.1363158,SA
SSTAR,(STIT),386 Stanley Street,Fall River,MA,2720,,Bristol,508-235-7037,Intakes,508-235-7002,508-324-7763,http://www.sstar.org,41.7151566,-71.1363158,SA
Steppingstone Inc,Therapeutic Community,522 North Main Street,Fall River,MA,2720,,Bristol,508-674-2788 x106,,508-674-2788 x101,,http://www.steppingstoneinc.org,41.70907268,-71.15445874,SA
Steppingstone Inc,Mens Program,466 North Main Street,Fall River,MA,2720,,Bristol,508-617-4436,,508-674-2788 x202,,http://www.steppingstoneinc.org,41.708366,-71.154817,SA
Steppingstone Inc,Outpatient Program,279 North Main Street,Fall River,MA,2720,,Bristol,508-679-0033,,,,http://www.steppingstoneinc.org,41.705711,-71.1545979,SA
Fall River Comprehensive Trt Ctr,,22 Front Street,Fall River,MA,2721,,Bristol,508-593-9435,,,508-676-1307 x112,http://www.acadiahealthcare.com,41.6971457,-71.1467903,SA
SSTAR ,Lifeline Program,1010 South Main Street,Fall River,MA,2724,2855,Bristol,508-235-5010 x4019,Intakes,508-955-4673,508-235-5010,http://www.SSTAR.org,41.6907771,-71.165154,SA
Baystate Wing Hospital,Griswold Center,40 Wright Street,Palmer,MA,1069,,Hampden,413-370-5285,,413-370-8517,,http://www.baystatehealth.org,42.1694156,-72.341697,SA
Institute for Health and Recovery Inc,Fall River,275 Martine Street,Fall River,MA,2723,,Bristol,617-661-3991,,,,http://www.healthrecovery.org,41.6804838,-71.1258337,SA
Families First Health and Support Ctr,,100 Campus Drive,Portsmouth,NH,3801,,Rockingham,603-422-8208 x120,,603-422-8208,,http://www.familiesfirstseacoast.org/,43.0400244,-70.7870021,SA
Concord Metro Treatment Center,,100 Hall Street,Concord,NH,3301,,Merrimack,603-229-4260 x14950,,603-229-4260 x14905,,http://newseason.com/,43.187051,-71.5248459,SA
Southcoast Behavioral Health Hospital,,581 Faunce Corner Road,North Dartmouth,MA,2747,,Bristol,508-809-4487,,,,http://www.southcoastbehavioralhealth.com,41.674167,-70.98532,SA
United Community and Family Servs,,120-122 Plainfield Road,Moosup,CT,6354,,Windham,860-822-4938,,860-822-4900,,http://www.ucfs.org/,41.710262,-71.894648,SA
Concord Hospital,,250 Pleasant Street,Concord,NH,3301,,Merrimack,603-227-7000 x4039,,603-227-7000 x2521,,http://www.concordhospital.org,43.1977499,-71.5617779,SA
ROAD to a Better Life,,22 Bridge Street,Concord,NH,3301,,Merrimack,603-415-0330,Intakes,603-841-2307,603-841-2317,http://www.roadtoabetterlifenh.com,43.208025,-71.5342336,SA
Counseling Center of Nashua,,414 State Street,Portsmouth,NH,3801,,Rockingham,603-431-3004,Intakes,603-689-7890,603-689-7644,http://www.counselingcenter.com/,43.0748828,-70.7596382,SA
AdCare Outpatient,North Dartmouth,88 Faunce Corner Road,North Dartmouth,MA,2747,,Bristol,508-999-1102 x104,,508-999-1102,,http://www.adcare.com,41.648514,-70.989701,SA
ROAD to a Better Life,,2299 Woodbury Avenue,Portsmouth,NH,3801,,Rockingham,603-766-8660,Intakes,603-841-2307,603-841-2317,http://www.roadtoabetterlifenh.com,43.1033355,-70.8093917,SA
Merrimack River Medical Services,Healthcare Resource Centers,177 Shatuck Way,Portsmouth,NH,3801,,Rockingham,603-436-0448,,,,http://www.csachelp.com,43.101218,-70.802743,SA
High Point Treatment Center Inc,Detoxification Program,1233 State Road,Plymouth,MA,2360,,Plymouth,508-224-7701 x2436,,774-213-8400 x1,,http://www.hptc.org,41.887157,-70.537288,SA
Harmony House,,234 Earle Street,New Bedford,MA,2746,,Bristol,508-992-8948,,,508-992-7788,http://www.hptc.org,41.664265,-70.929264,SA
High Point Treatment Center Inc,Manomet Outpatient Clinic,1233 State Road,Plymouth,MA,2360,,Plymouth,508-224-7701 x2420,,508-224-7705,,http://www.highpoint.com,41.8862435,-70.5381939,SA
High Point Treatment Center Inc,Relections Court Alternative Program,497 Belleville Avenue,New Bedford,MA,2746,,Bristol,508-994-3678,,,,http://www.hptc.org,41.6650553,-70.9229659,SA
Clinical Services of RI,,11 King Charles Drive,Portsmouth,RI,2871,,Newport,401-683-0857,,,,http://www.clinicalservicesri.com,41.5917111,-71.2671107,SA
Gosnold Counseling Center,,74 Faunce Corner Road,North Dartmouth,MA,2747,,Bristol,508-999-3886,,800-444-1554,,http://,41.6395996,-70.9866026,SA
Stafford Family Services,,21 Hyde Park Road,Stafford Springs,CT,6076,,Tolland,860-684-4239,,,,http://,41.9499581,-72.307899,SA
Naval Branch Hlth Clinic Portsmouth,Substance Abuse Rehabilitation Prog,1 Ayres Circle,Kittery,ME,3904,,York,207-438-6670,,,,http://nhcne.med.navy.mil/,43.0802884,-70.7298102,SA
High Point Treatment Center Inc,Section 35 WATC Program,108 North Front Street,New Bedford,MA,2740,,Bristol,774-628-1000,,,,http://www.hptc.org,41.652688,-70.924652,SA
High Point Treatment Center Inc,Outpatient,68 North Front Street,New Bedford,MA,2740,,Bristol,508-717-0525,Intakes,508-992-1500,,http://www.hptc.org,41.651957,-70.924519,SA
Healthcare Resource Centers,,8 Kilburn Street,New Bedford,MA,2740,,Bristol,508-979-1122,,,,http://www.hcrcenters.com,41.6527859,-70.9214833,SA
Keene Metro Treatment Center,,1076 West Swanzey Road,Swanzey,NH,3446,,Cheshire,603-358-0050,,,,http://www.newseason.com/,42.8450372,-72.3488965,SA
Steppingstone Inc,Womens Program,979 Pleasant Street,New Bedford,MA,2740,,Bristol,508-984-1880,,,508-674-2788 x411,http://www.steppingstoneinc.org,41.641077,-70.928155,SA
Monadnock Family Services,Monadnock Region Substance Abuse,17 93rd Street,Keene,NH,3431,,Cheshire,603-357-4400,,603-357-5270,,http://www.mfs.org,42.932545,-72.274669,SA
Groups Recover Together,,103 Roxbury Street,Keene,NH,3431,,Cheshire,800-683-8313,,,,http://www.joingroups.com,42.934349,-72.274221,SA
Phoenix House,Keene Center,106 Roxbury Street,Keene,NH,3431,,Cheshire,603-358-4041 x96501,,603-358-4041 x1,,http://www.phoenixhouse.org,42.9346245,-72.2745932,SA
Brian Houghton LADC,,51 Ralston Street,Keene,NH,3431,,Cheshire,603-499-3001,,,,http://www.bhoughtonladc.com,42.9289768,-72.2831414,SA
New Chapters,,33 South Sixth Street,New Bedford,MA,2740,,Bristol,774-202-4820,Intakes,774-202-4820 x101,774-202-4827 x103,http://www.hptc.org,41.631787,-70.927499,SA
Community Improvement Associates,(CIA),170 Emerald Street,Keene,NH,3431,,Cheshire,603-352-1016,,,603-352-1017,http://www.cianh.com,42.9300666,-72.2849399,SA
CleanSlate Centers,,92 Grape Street,New Bedford,MA,2740,,Bristol,413-341-1787,,,,http://www.cleanslatecenters.com,41.6240728,-70.938545,SA
East Wareham Comp Trt Center,,3088 Cranberry Highway,East Wareham,MA,2538,,Plymouth,508-342-5973,,,,http://www.capecodctc.com,41.7558411,-70.6457026,SA
Monarch House,,252 County Street,New Bedford,MA,2740,,Bristol,508-992-0800,,,,http://www.semcoa.org,41.6243257,-70.9248036,SA
Phoenix House of New England,Phoenix House Exeter Center,251 Main Street,Exeter,RI,2822,,Washington,401-295-0960 x4420,Intakes,401-295-0960 x6399,401-295-0960 x6400,http://www.phoenixhouse.org,41.5576696,-71.5416118,SA
Gifford Street Wellness Center LLC,Outpatient Counseling Program ,34 Gifford Street,New Bedford,MA,2744,,Bristol,508-999-3126,,,,http://,41.6184603,-70.9192719,SA
Gifford Street Wellness Center LLC,Opioid Treatment Program,34 Gifford Street,New Bedford,MA,2744,,Bristol,508-318-4434,,,,http://,41.6177821,-70.9189555,SA
Johnson Memorial Hospital,,201 Chestnut Hill Road,Stafford Springs,CT,6076,,Tolland,860-684-4251,,860-684-8585,,http://www.jmmc.com,41.97742739,-72.3902312,SA
New Life Center for Recovery,,1323 Worcester Street,Indian Orchard,MA,1151,,Hampden,413-209-9820,,,,http://www.greaternewlife.net,42.158357,-72.499793,SA
Merrimack River Medical Services,Healthcare Resource Centers,200 Route 108,Somersworth,NH,3878,,Strafford,603-953-0077,,,,http://www.hcrcenters.com,43.1901077,-70.8740109,SA
Southeastern New Hampshire Servs,Turning Point,272 County Farm Road,Dover,NH,3820,,Strafford,603-516-8160,,,,http://www.doverNHtreatmentcenter.org,43.2188066,-70.9358951,SA
Southeastern New Hampshire Servs,Addiction Recovery Center (ARC),272 County Farm Road,Dover,NH,3820,,Strafford,603-516-8160,,,,http://www.doverNHtreatmentcenter.org,43.2188066,-70.9358951,SA
Southeastern New Hampshire Servs,Outpatient Services,272 County Farm Road,Dover,NH,3820,,Strafford,603-516-8160,,,,http://www.doverNHtreatmentcenter.org,43.2188066,-70.9358951,SA
Southeastern New Hampshire Servs,4 Women IOP,272 County Farm Road,Dover,NH,3820,,Strafford,603-516-8160,,,,http://www.doverNHtreatmentcenter.org,43.2188066,-70.9358951,SA
Odonata Psychotherapy and,Retreat Center,258 Main Street,Buzzards Bay,MA,2532,,Barnstable,774-247-4939,,,,http://www.odonatacenter.com/,41.7500165,-70.6006731,SA
AdCare Rhode Island,Inpatient/Outpatient Program,1950 Tower Hill Road,North Kingstown,RI,2852,,Washington,401-294-6160,,,,http://www.adcare.com,41.526874,-71.46221,SA
Providence Center,Roads to Recovery Womens Program,15 Bakers Pines Road,Wyoming,RI,2898,,Washington,401-276-4020,,,,http://providencecenter.org/,41.536141,-71.677059,SA
Two Rivers Recovery Ctr for Women,,148 Montague City Road,Greenfield,MA,1301,,Franklin,413-512-5019,Intakes,413-512-5020,413-512-5023,http://www.chd.org/tworivers,42.578078,-72.579367,SA
Substance Abuse Rehabilitation Prog,Naval Health Clinic New England,43 Smith Road,Newport,RI,2841,,Newport,401-841-2259,,,401-841-3772,http://,41.5039271,-71.3218626,SA
Newport County,Community Mental Health Center,127 Johnny Cake Hill Road,Middletown,RI,2842,,Newport,401-846-1213,,,,http://www.nccmhc.org,41.503283,-71.284107,SA
Child and Family Services,Behavioral Health Services,31 John Clarke Road,Middletown,RI,2842,,Newport,401-848-4199,,,401-849-2300,http://www.childandfamilyri.org,41.501213,-71.287228,SA
CHR Mansfield,,7 Ledgebrook Drive,Mansfield Center,CT,6250,,Tolland,860-456-0038,,877-884-3571,,http://www.chrhealth.org,41.7333434,-72.2036167,SA
York Hospital,Cottage Program,15 Hospital Drive,York,ME,3909,,York,207-351-2118,,,,http://www.yorkhospital.com/programs/substance-abuse-cottage-program.aspx,43.14254155,-70.65086889,SA
CHD Outpatient Behav Health Servs,,489 Bernardston Road,Greenfield,MA,1301,,Franklin,413-774-6252,,844-243-4357,,http://www.chd.org,42.608746,-72.5856398,SA
ServiceNet Inc,Beacon House,53-57 Beacon Street,Greenfield,MA,1301,,Franklin,413-773-1705,,,,http://www.servicenet.org,42.596945,-72.5924299,SA
Hartford Dispensary,Willimantic Clinic,54-56 Boston Post Road,Willimantic,CT,6226,,Windham,860-456-7990,,,,http://www.hartforddispensary.org,41.7193439,-72.1958763,SA
United Community and Family Servs,Psychiatric Outpt Clinic for Adults,70 Main Street,Jewett City,CT,6351,,New London,860-376-7040,Intakes,860-822-4900,860-892-7042 x1733,http://www.ucfs.org/,41.606343,-71.9821123,SA
Franklin Recovery Center,,298 Federal Street,Greenfield,MA,1301,,Franklin,413-223-5072,Intakes,413-223-5072 x5115,413-733-1423,http://www.bhninc.org,42.6006204,-72.5942336,SA
Northern Hope Center,,298 Federal Street,Greenfield,MA,1301,,Franklin,413-223-5072 x5233,Intakes,413-272-1918,413-733-1431,http://bhninc.org/,42.6005856,-72.594328,SA
ROAD to a Better Life,,255 Route 108,Somersworth,NH,3878,,Strafford,603-841-2301,Intakes,603-841-2307,603-841-2317,http://www.roadtoabetterlifenh.com,43.2525433,-70.8980263,SA
CODAC Behavioral Healthcare,CODAC Newport,93 Thames Street,Newport,RI,2840,,Newport,401-846-4150,,,,http://www.codacinc.org,41.490971,-71.315539,SA
Service Net Inc,Substance Abuse Intervention Prog,55 Federal Street,Greenfield,MA,1301,,Franklin,413-772-2935,,413-585-1328,,http://www.servicenet.org/,42.5891264,-72.5993113,SA
Goodwin Community Health,,311 Route 108,Somersworth,NH,3878,,Strafford,603-749-2346,,,,http://goodwinch.org/contact-us/contact-info/,43.2582019,-70.9013435,SA
CleanSlate Centers,,1 Arch Place,Greenfield,MA,1301,,Franklin,413-341-1787,,,,http://www.cleanslatecenters.com/,42.5920488,-72.6041819,SA
Clinical and Support Options,Satellite,8 Atwood Drive,Northampton,MA,1060,,Hampshire,413-582-0471,,,,http://www.csoinc.org,42.3031243,-72.6227955,SA
Community Healthcare Inc,Health Care Resource Centers,441 Pleasant Street,Northampton,MA,1060,3976,Hampshire,413-584-2404,,413-746-0051 x101,,http://www.csacmethadone.com,42.312853,-72.6249309,SA
Hairston House,,25 Graves Avenue,Northampton,MA,1060,,Hampshire,413-585-8390,,,,http://,42.322022,-72.628051,SA
Perception Programs Inc,Perception House,134 Church Street,Willimantic,CT,6226,,Windham,860-450-7130,,,,http://www.perceptionprograms.org,41.7144139,-72.2111181,SA
Outpatient Services,,54 North Street,Willimantic,CT,6226,,Windham,860-450-0151 x2111,,860-450-0151 x2110,,http://www.perceptionprograms.org,41.7132803,-72.21262,SA
City Clinic,,230-235 Maple Street,Holyoke,MA,1040,,Hampden,413-532-0389,,,,http://www.bhninc.org/,42.2072615,-72.6089582,SA
United Services Inc,Addiction Recovery Services,132 Mansfield Avenue,Willimantic,CT,6226,,Windham,860-456-2261,,,,http://www.unitedservicesct.org,41.7173731,-72.2243758,SA
CleanSlate Centers,Holyoke,306 Race Street,Holyoke,MA,1040,,Hampden,413-341-1787,,,,http://www.cleanslatecenters.com,42.2004838,-72.6075131,SA
Behavioral Health Network Inc,Opportunity House,59-61 Saint James Avenue,Springfield,MA,1109,,Hampden,413-739-4732 x100,,413-733-1423,,http://,42.110863,-72.573673,SA
CHR Outpatient Services Willimantic,,433 Valley Street,Willimantic,CT,6226,,Windham,860-456-7200 x14,,877-884-3571,,http://,41.716017,-72.2245514,SA
Community Health Resources,Willimantic Clinic,433 Valley Street,Willimantic,CT,6226,,Windham,877-884-3571,,,,http://www.chrhealth.org,41.716017,-72.2245514,SA
Phoenix House TSS,,130 Pine Street,Holyoke,MA,1040,,Hampden,413-538-8188,,413-538-8188 x96310,,http://www.phoenixhouse.org,42.2089132,-72.6122707,SA
Community Healthcare Inc,Community Substance Abuse Centers,177 Shelburne Road,Greenfield,MA,1301,,Franklin,413-774-3321,,,413-774-3258,http://www.csacmethadone.com,42.587589,-72.621546,SA
Community Health Resources,Roots to Recovery Holistic Approach,1491 West Main Street,Willimantic,CT,6226,,Windham,877-884-3571,,,860-456-1769,http://chrhealth.org,41.7182819,-72.234112,SA
Phoenix Houses of New England,Springfield Center,5 Madison Avenue,Springfield,MA,1105,,Hampden,413-733-2178 x96310,,,,http://www.phoenixhouse.org,42.0999135,-72.5748019,SA
Gosnold Inc,Gosnold at Cataumet,1140 Route 28,Cataumet,MA,2534,,Barnstable,508-540-6550,,800-444-1554,,http://gosnold.org/,41.6722025,-70.6006266,SA
Gandara Residential Servs for Women,,507 Appleton Street,Holyoke,MA,1040,4040,Hampden,413-540-9881 x310,,,413-540-9881 x312,http://www.gandaracenter.org,42.2097344,-72.6181198,SA
Sisters of Providence Hospital,Methadone Maintenance Program,227 Mill Street,Springfield,MA,1108,,Hampden,413-536-5111,,413-539-2973,,http://www.mercycares.com,42.092917,-72.572838,SA
Grace House,Center for Human Development,143 West Street,Northampton,MA,1060,,Hampshire,413-586-8213 x104,,617-661-3991,,http://www.chd.org/,42.313079,-72.641772,SA
Coles Place,,401 Liberty Street,Springfield,MA,1104,,Hampden,413-726-1030,Intakes,413-733-1423,413-272-1868,http://bhninc.org/,42.1141403,-72.5849427,SA
Liberty Street Clinic,,417 Liberty Street,Springfield,MA,1104,,Hampden,413-734-3151,Intakes,413-733-1423,413-737-2439,http://www.bhninc.org/,42.1142723,-72.5850824,SA
Behavioral Health Network Inc,My Sisters House,89 Belmont Avenue,Springfield,MA,1108,,Hampden,413-733-7891 x100,Intakes,413-733-7891,413-733-7892,http://www.bhninc.org,42.089681,-72.573739,SA
Institute for Health and Recovery,Springfield,155 Maple Street,Springfield,MA,1105,,Hampden,617-661-3991,,,,http://www.healthrecovery.org,42.1004303,-72.5790147,SA
Hope Center CSS,,35 Heywood Street,Springfield,MA,1104,,Hampden,413-301-9500,Intakes,413-733-1423,413-272-1874,http://www.bhninc.org,42.1132916,-72.5852259,SA
Health Affiliates Maine,Reid Lesneski LCPC LADC,433 U.S. Route 1,York,ME,3909,,York,207-363-8300 x2,,,,http://,43.169595,-70.632114,SA
Child Guidance Clinic,,110 Maple Street ,Springfield,MA,1104,,Hampden,413-732-7419,Intakes,413-733-1423,413-737-2439,http://www.bhninc.org/,42.1009107,-72.581375,SA
Groups Recover Together,,40 Winter Street,Rochester,NH,3867,,Strafford,800-683-8313,,,,http://,43.3035089,-70.9707941,SA
Holyoke Medical Center Inc,Partial Hosp and Intensive Outpt Prog,575 Beech Street,Holyoke,MA,1040,,Hampden,413-534-2627,,,,http://www.holyokehealth.com,42.19947343,-72.62753929,SA
Behavioral Health Network Inc,Carlson Recovery Center,471 Chestnut Street,Springfield,MA,1107,,Hampden,413-733-1431,Intakes,413-272-1888,413-731-7733,http://www.bhninc.org,42.114066,-72.596654,SA
Sloan Clinic,,471 Chestnut Street,Springfield,MA,1104,,Hampden,413-733-1431,Intakes,413-733-1423,413-737-2439,http://www.bhninc.org/,42.1146392,-72.5976206,SA
Crossroads Agency,,80 Congress Street,Springfield,MA,1104,,Hampden,413-739-1611,,,,http://www.crossroads-agency.com,42.108559,-72.59588,SA
CleanSlate Centers,Springfield,1985 Main Street,Springfield,MA,1103,,Hampden,413-341-1787,,,,http://www.cleanslatecenters.com,42.1073954,-72.5976842,SA
Gosnold Counseling Center,,43 Race Point Road,Provincetown,MA,2657,,Barnstable,508-487-2449,,800-444-1554,,http://gosnold.org/,42.0607402,-70.1902783,SA
Habit OPCO,,2257 Main Street,Springfield,MA,1107,,Hampden,413-733-3488 x1200,,,,http://www.springfieldctc.com/,42.1104206,-72.6014124,SA
Clinical Services of Rhode Island,,49 South County Commons Way,Wakefield,RI,2879,,Washington,401-783-2220,,,,http://clinicalservicesri.com,41.4561354,-71.4707302,SA
Community Healthcare Inc,Health Care Resource Ctrs fka CSAC,628 Center Street,Chicopee,MA,1013,,Hampden,413-746-0051 x3182,,413-746-0051,,http://www.csacmethadone.com,42.1327229,-72.6133673,SA
Gandara Center Inc,Gandara Addiction Recovery Program,33 Arch Street,Springfield,MA,1107,,Hampden,413-781-2234 x304,,413-781-2234 x300,,http://www.gandaracenter.org,42.113619,-72.606911,SA
Providence Behavioral Health Hospital,Substance Abuse and Pathways Prog,1233 Main Street,Holyoke,MA,1040,,Hampden,413-539-2487,,413-539-2973,,http://www.mercycares.com,42.1662091,-72.6335126,SA
Providence Behavioral Health Hospital,Acute Treatment Services,1233 Main Street,Holyoke,MA,1040,,Hampden,413-536-5111 x2984,Intakes,413-539-2981,800-274-7724,http://www.Mercycares.com,42.1662091,-72.6335126,SA
CODAC Behavioral Healthcare II,South County,350 Columbia Street,Wakefield,RI,2879,,Washington,401-789-0934,,401-792-0934,,http://www.codacinc.org,41.450225,-71.495977,SA
Sisters of Providence Hospital,Methadone Maintenance Program,1233 Main Street,Holyoke,MA,1040,,Hampden,413-539-2973,,,,http://www.mercycares.com,42.165342,-72.635571,SA
CleanSlate Centers,,900 Memorial Avenue,West Springfield,MA,1089,,Hampden,413-341-1787,,,,http://,42.0954146,-72.6127596,SA
CleanSlate Centers,,900 Memorial Drive,West Springfield,MA,1089,,Hampden,413-341-1787,,,,http://www.cleanslatecenters.com,42.0954146,-72.6127596,SA
West Central Family and Counseling,,103 Myron Street,West Springfield,MA,1089,,Hampden,413-592-1980,,,,http://westcentralfamily.com/,42.132958,-72.6300097,SA
AdCare Hospital,,117 Park Avenue ,West Springfield,MA,1089,,Hampden,413-209-3124,,,,http://www.adcare.com,42.1052846,-72.6186937,SA
VA Central Western MA HCS,Substance Use Disorders Clinic,421 North Main Street,Leeds,MA,1053,,Hampshire,413-584-4040 x2600,,413-584-4040 x2603,,http://www.centralwesternmass.va.gov,42.3471739,-72.6859271,SA
Community Health Resources,Enfield Clinic,153 Hazard Avenue,Enfield,CT,6082,,Hartford,877-884-3571,,,,http://www.chrhealth.org,41.9882233,-72.5570557,SA
Mount Tom Ctr for MH and Recovery,,40 Bobola Road,Holyoke,MA,1040,,Hampden,413-536-5473,,,,http://www.bhninc.org,42.1665547,-72.6490714,SA
Galilee Mission Inc,,268 Kingstown Road,Narragansett,RI,2882,,Washington,401-789-9390,,,401-789-9420,http://www.galileemission.net,41.434467,-71.474537,SA
Healthcare and Rehabilitation Services,Southeastern Vermont,51 Fairview Street,Brattleboro,VT,5301,,Windham,802-254-6028,,888-888-5144,,http://www.hcrs.org,42.8404963,-72.5662792,SA
Gosnold Inc,Emerson House,558 West Falmouth Highway,West Falmouth,MA,2574,,Barnstable,508-540-6550,,800-444-1554,,http://gosnold.org/,41.6002119,-70.6364921,SA
Brattleboro Retreat,Birches PHP/IOP Program,1 Anna Marsh Lane,Brattleboro,VT,5301,,Windham,802-257-7785,Intakes,802-258-3700,800-738-7328,http://www.brattlebororetreat.org,42.858463,-72.562089,SA
Brattleboro Retreat,Inpatient Co-occurring Disorders,1 Anna Marsh Lane,Brattleboro,VT,5302,,Windham,800-738-7328 x6182,,800-258-3700,,http://www.brattlebororetreat.org,42.858908,-72.5628964,SA
Brattleboro Retreat,Uniformed Services Program,1 Anna Marsh Lane,Brattleboro,VT,5302,,Windham,802-257-7785,,802-258-3700,,http://,42.858908,-72.5628964,SA
Brattleboro Retreat,Starting Now,1 Anna Marsh Lane,Brattleboro,VT,5302,,Windham,802-257-7785,Intakes,802-258-3707 x4,800-258-3700,http://www.brattlebororetreat.org,42.858908,-72.562897,SA
Phoenix Houses of New England,Rise III/Womens Program,178 Linden Street,Brattleboro,VT,5301,,Windham,802-257-2415,,,,http://www.phoenixhouse.org,42.85868,-72.56397,SA
Brattleboro Comprehensive Trt Center,Habit-Opco-Brattleboro,16 Town Crier Drive,Brattleboro,VT,5304,,Windham,802-349-1880,,,,http://www.brattleboroctc.com/,42.87135,-72.55612,SA
Phoenix Houses of New England,Brattleboro/Rise Program,435 Western Avenue,Brattleboro,VT,5301,,Windham,802-257-4677 x8921,,802-463-9851 x6390,,http://www.phoenixhouse.org,42.85053,-72.58246,SA
Natchaug Hospital Inc,River East Day Hospital and Trt Ctr,428 Hartford Turnpike,Vernon Rockville,CT,6066,,Tolland,860-870-0119 x253,,,,http://www.natchaug.org,41.8285554,-72.4817868,SA
Hockanum Valley Comm Council,,27 Naek Road,Vernon Rockville,CT,6066,,Tolland,860-872-9825,,,,http://www.hvcchelps.org,41.8390418,-72.4927052,SA
United Community and Family Servs,Southern New London County,47 Town Street,Norwich,CT,6360,,New London,860-892-7042,Intakes,860-822-4900,860-892-7042 x1733,http://www.ucfs.org/,41.5477143,-72.091534,SA
Recovering Champions Inc,,279 Brick Kiln Road,East Falmouth,MA,2536,,Barnstable,508-388-7613,,,844-888-5391,http://recoveringchampions.com/,41.5829509,-70.5967043,SA
Backus Center for Mental Health,,326 Washington Street,Norwich,CT,6360,,New London,860-889-8331,,,,http://www.backushospital.org,41.5430114,-72.0879807,SA
Gosnold Counseling Center,,196 Ter Heun Drive,Falmouth,MA,2540,,Barnstable,800-444-1554,,,508-540-7118,http://gosnold.org/,41.566284,-70.626782,SA
Recovery Maine Inc,,33 Main Street,North Berwick,ME,3906,,York,207-558-2111,,,,http://www.recoverymaine.com,43.3048399,-70.7340564,SA
Stonington Institute,,75 Swantown Hill Road,North Stonington,CT,6359,,New London,860-445-3008,Intakes,860-445-3001,860-445-3052,http://www.stoningtoninstitute.com,41.4739298,-71.9266135,SA
Webster Place,,27 Holy Cross Road,Franklin,NH,3235,,Merrimack,603-263-9430,,603-622-3020,,http://www.farnumcenter.org,43.406168,-71.6517146,SA
Ray House,,14 Holy Cross Road,Franklin,NH,3235,,Merrimack,603-263-9359,,603-622-3020,,http://www.farnumcenter.org,43.4068538,-71.6526649,SA
Gosnold Inc,Miller House,165 Woods Hole Road,Falmouth,MA,2540,,Barnstable,508-540-5052,Intakes,800-444-1554,508-540-6550,http://gosnold.org/,41.5491265,-70.6444971,SA
SE Council on Alc and Drug Dep Inc,(SCADD)/Outpatient Program,321 Main Street,Norwich,CT,6360,,New London,860-889-3178 x14,Intakes,860-889-3178 x10,860-889-3178 x21,http://scadd.org,41.5241686,-72.0721667,SA
Catholic Charities Diocese Norwich Inc,,331 Main Street,Norwich,CT,6360,,New London,860-889-8346 x284,,860-889-8346,,http://www.ccfsn.org,41.5239976,-72.0717914,SA
SE Council on Alc and Drug Dep Inc,(SCADD)/Altruism House/Male,313 Main Street,Norwich,CT,6360,,New London,860-889-3414,,,,http://www.scadd.org,41.524315,-72.072526,SA
Agawam Counseling Center,,30 Southwick Street,Agawam,MA,1001,,Hampden,413-786-6410,Intakes,413-733-1423,413-737-2439,http://www.bhninc.org/,42.0672142,-72.680238,SA
Gandara Esperanza Women TSS,,91 East Mountain Road,Westfield,MA,1085,,Hampden,413-729-4250,,413-729-4250 x642,,http://,42.110955,-72.7017225,SA
CHC of Cape Cod Addiction Program,,107 Commercial Street,Mashpee,MA,2649,,Barnstable,508-477-7090 x3204,,,,https://www.chcofcapecod.org/,41.6073784,-70.4908409,SA
Community Healthcare Inc,Community Substance Abuse Centers,125 North Elm Street,Westfield,MA,1085,,Hampden,413-568-6600,,,,http://www.csacmethadone.com,42.13425,-72.740168,SA
SCADD Lebanon Pines,Psychiatric Outpt Clinic for Adults,37 Camp Mooween Road,Lebanon,CT,6249,,New London,860-889-1717 x203,Intakes,860-889-1717 x209,860-889-1717 x214,http://www.scadd.org,41.56795,-72.237313,SA
SCADD Lebanon Pines,Residential Program,37 Camp Mooween Road,Lebanon,CT,6249,,New London,860-889-1717 x209,,860-889-1717 x214,,http://www.scadd.org,41.56795,-72.237313,SA
Hartford Dispensary,Norwich Clinic,772 West Thames Street,Norwich,CT,6360,,New London,860-886-0446,,,,http://www.hartforddispensary.org,41.4967233,-72.0980836,SA
Hartford Dispensary,Manchester Clinic,335 Broad Street,Manchester,CT,6040,,Hartford,860-643-3210,,,,http://www.hartforddispensary.org,41.7768873,-72.5330747,SA
Carson Center for Adults and Families,,77 Mill Street,Westfield,MA,1085,,Hampden,413-568-6141,,,,http://www.bhninc.org/,42.1116968,-72.7656093,SA
Community Health Resources,Manchester Clinic,444 Center Street,Manchester,CT,6040,,Hartford,877-884-3571,,,,http://www.chrhealth.org,41.772536,-72.539179,SA
Phoenix House RISE II,,11 Underhill Avenue,Bellows Falls,VT,5101,,Windham,802-463-9851,,,,http://www.phoenixhouse.org,43.13436,-72.45156,SA
Gosnold Counseling Center,,1185 Falmouth Road,Centerville,MA,2632,,Barnstable,508-862-9929,,800-444-1554,,http://gosnold.org/,41.6578546,-70.3301638,SA
Recovery Associates of Southern ME,,1662 Post Road,Wells,ME,4090,4638,York,207-985-8900,,888-828-1501,,http://,43.3260553,-70.5800487,SA
United Community and Family Servs,,212 Upton Road,Colchester,CT,6415,,New London,860-537-7676,,860-822-4900,,http://www.ucfs.org/,41.5786656,-72.3484559,SA
Treatment Partners of Massachusetts,DBA Cape Cod Recovery Center,282 Barnstable Road,Hyannis,MA,2601,,Barnstable,508-242-3433,,,,http://,41.6610001,-70.2849349,SA
Addiction Campuses,Swift River,151 South Street,Cummington,MA,1026,,Hampshire,413-634-3600,,888-910-1164,,http://www.swiftriver.com,42.4831671,-72.8844861,SA
Hilltown Community Health Centers,,73 Russell Road,Huntington,MA,1050,,Hampshire,413-667-3009,Intakes,413-667-3009 x267,413-238-5511,http://www.hchcweb.org,42.224499,-72.870966,SA
Horizons Counseling Center,,25 Country Club Road,Gilford,NH,3249,,Belknap,603-524-8005,,,,http://,43.52738173,-71.44063,SA
Groups Recover Together,,61 Beacon Street West,Laconia,NH,3246,,Belknap,800-683-8313,,,,http://www.joingroups.com,43.5272143,-71.4709382,SA
Health Affiliates Maine,Jonathan Berube,908 Main Street,Sanford,ME,4073,,York,207-651-1287,,,,http://,43.4392081,-70.7752981,SA
Yarmouth Comprehensive Trt Ctr,,31A Workshop Road,South Yarmouth,MA,2664,1814,Barnstable,508-502-7589,,,,http://www.capecodctc.com,41.6867103,-70.2121586,SA
Healthcare Resource Ctrs (FKA CSAC),Ambulatory Detox,55 Fishfry Street,Hartford,CT,6120,,Hartford,860-247-8300,,,,http://www.hcrcenters.com,41.7932226,-72.6592523,SA
Rushford Center Inc,Positive Step/Glastonbury,110 National Drive,Glastonbury,CT,6033,,Hartford,860-657-8910,,877-577-3233,,http://rushford.org,41.7176318,-72.5905257,SA
Hartford Dispensary,Henderson/Johnson Clinic MMTP,12-14 and 16-18 Weston Street,Hartford,CT,6120,,Hartford,860-527-5100,,,,http://www.hartforddispensary.org,41.7838141,-72.663668,SA
Hartford Behavioral Health,,2550 Main Street,Hartford,CT,6120,,Hartford,860-548-0101,,860-548-0101 x354,,http://www.hbh1.org,41.7887102,-72.6715671,SA
Maine Behavioral Healthcare,,474 Main Street,Springvale,ME,4083,,York,207-282-1500,,888-568-1112,,http://mainehealth.org/maine-behavioral-healthcare,43.465572,-70.7962097,SA
Richer Counseling Services,,49 Pleasant Street,Springvale,ME,4083,,York,207-324-4411,,,,http://,43.4666118,-70.7948305,SA
InterCommunity Inc,Co Occurring Disorder Program,281 Main Street,East Hartford,CT,6118,,Hartford,860-569-5900,,,,http://www.intercommunityct.org,41.742462,-72.6331211,SA
Connecticut Valley Hospital,Blue Hills Substance Services,500 Vine Street,Hartford,CT,6112,,Hartford,860-293-6400 x401,,860-293-6400,,http://www.dmhas.state.ct.us,41.7963932,-72.6875312,SA
Intercommunity Recovery Centers,The Clayton House,203 Williams Street East,Glastonbury,CT,6033,,Hartford,860-659-0309,,,,http://intercommunityct.org/,41.7040845,-72.6007089,SA
InterCommunity Inc,Recovery House,56 Coventry Street,Hartford,CT,6112,,Hartford,860-714-3705,,,,http://intercommunityct.org/,41.7977971,-72.689626,SA
InterCommunity Coventry House,Mothers/Pregnant Women,46 Coventry Street,Hartford,CT,6112,,Hartford,860-714-3703,,,,http://intercommunityct.org/,41.7973435,-72.6900917,SA
InterCommunity Inc,,16 Coventry Street,Hartford,CT,6112,,Hartford,860-569-5900,,,,http://www.intercommunityct.org,41.7972326,-72.6900849,SA
Marthas Vineyard Community Servs,Island Counseling Center/Outpatient,111 Edgartown Road,Oak Bluffs,MA,2557,,Dukes,508-693-7900 x290,,,508-693-7900 x225,http://www.mvcommunityservices.com,41.4197856,-70.5927861,SA
InterCommunity Inc,Residential Program,500 Blue Hills Avenue,Hartford,CT,6112,,Hartford,860-714-3739,,,,http://www.adrc-ct.org,41.7996143,-72.6949992,SA
Hilltown Community Health Ctr Inc,Worthington Health Center,58 Old North Road,Worthington,MA,1098,,Hampshire,413-238-5511,,413-667-3009,,http://www.hchcweb.org,42.413408,-72.937799,SA
Community Health Services Inc,Department of Behavioral Health,500 Albany Avenue,Hartford,CT,6120,,Hartford,860-249-9625,,,,http://www.chshartford.org,41.777732,-72.685118,SA
Carolyn Curtis LCSW LADC,,11 Main Street,Kennebunk,ME,4043,,York,207-229-6270,,,888-568-1112,http://,43.385441,-70.541729,SA
Hartford Dispensary,Doctors Clinic,345 Main Street,Hartford,CT,6106,,Hartford,860-525-2181,,,,http://www.hartforddispensary.org,41.760121,-72.6754002,SA
Hartford Behavioral Health,,1 Main Street,Hartford,CT,6106,,Hartford,860-727-8703,,860-548-0101 x354,,http://www.hbh1.org,41.7556054,-72.6766505,SA
Institute for the Hispanic Family,Hispanic Alcohol/Subst Abuse Prog,45 Wadsworth Street,Hartford,CT,6106,,Hartford,860-527-1124,,,,http://WWW.CCAOH.ORG,41.7590247,-72.6800191,SA
Community Health Resources,Bloomfield Clinic,693 Bloomfield Avenue,Bloomfield,CT,6002,,Hartford,877-884-3571,,,,http://www.chrhealth.org,41.8272523,-72.7378779,SA
Youth Challenge of Connecticut,Long Term Male Residential Center,15-17 and 19 May Street,Hartford,CT,6105,,Hartford,860-728-5199,,,,http://www.youthchallenge.org,41.7741446,-72.6940999,SA
Wheeler Clinic Inc,Hartford Outpatient,999 Asylum Avenue,Hartford,CT,6105,,Hartford,860-523-9788,Intakes,860-793-3500,800-793-3588,http://www.wheelerclinic.org,41.7711118,-72.6979979,SA
Connection Inc,The Connection/Csl Ctr in Groton,542 Long Hill Road,Groton,CT,6340,,New London,860-448-4993,,855-435-7955,,http://www.theconnectioninc.org,41.3530653,-72.0579487,SA
Sweetser Affiliate,Linda Brown,58 Portland Road,Kennebunk,ME,4043,,York,207-841-9069,,,,http://,43.3953287,-70.5320295,SA
Connection Inc,Mothers Retreat,542 Long Hill Road,Groton,CT,6340,,New London,860-405-2107,,860-405-2107 x7100,,http://www.theconnectioninc.org,41.3526123,-72.058918,SA
Crossroads,Kennebunk Counseling Center,2 Livewell Drive,Kennebunk,ME,4043,,York,207-467-3369,,,,http://www.crossroadsme.org,43.393349,-70.527706,SA
United Community and Family Servs,,351 North Frontage Road,New London,CT,6320,,New London,860-442-4319,,860-822-4900,,http://www.ucfs.org/,41.3721311,-72.1184858,SA
Stonington Institute,,618 Poquonnock Road,Groton,CT,6340,4515,New London,860-439-6000 x6033,Intakes,860-535-1010,800-832-1022,http://www.stoningtoninstitute.com,41.341931,-72.058046,SA
Catholic Charities,Diocese of Norwich Inc,28 Huntington Street,New London,CT,6320,,New London,860-443-5328,,,,http://www.ccfsn.org,41.3535964,-72.0996256,SA
SE Council on Alc and Drug Dep Inc,(SCADD)/Detox,47 Coit Street,New London,CT,6320,,New London,860-447-1717,Intakes,860-447-1717 x221,860-447-1717 x200,http://www.scadd.org,41.3527589,-72.1003856,SA
SE Council on Alc and Drug Dep Inc,(SCADD)/Altruism House Female,62 Coit Street,New London,CT,6320,,New London,860-442-1017,,,,http://www.scadd.org,41.352567,-72.101092,SA
Community Renewal Team,HIV Testing/Education/Counseling,1921 Park Street,Hartford,CT,6106,,Hartford,860-951-8770 x232,,,860-951-9022 x232,http://crtct.com,41.7562784,-72.7108438,SA
ROAD to a Better Life,,29 Union Street,Wolfeboro,NH,3894,,Carroll,603-515-2240,Intakes,603-841-2307,603-841-2317,http://www.roadtoabetterlifenh.com,43.58541,-71.2102623,SA
Sound Community Services Inc,,21 Montauk Avenue,New London,CT,6320,,New London,860-439-6400,,,,http://www.soundcommunityservices.org,41.3483143,-72.1061068,SA
West Central  Behavioral Health,,52 West Pleasant Street,Claremont,NH,3743,3055,Sullivan,603-542-2578,,,,http://www.wcbh.org/,43.3635034,-72.345249,SA
Hartford Dispensary,New London Clinic,931 Bank Street,New London,CT,6320,,New London,860-447-2233,,,,http://www.hartforddispensary.org,41.3464256,-72.1109986,SA
SE Council on Alc and Drug Dep Inc,(SCADD)/Intensive Outpatient ,932 Bank Street,New London,CT,6320,,New London,860-437-2383,Intakes,860-437-2383 x201,860-437-2383 x205,http://www.scadd.org,41.3459404,-72.1105442,SA
SE Council on Alc and Drug Dep Inc,(SCADD),1000 Bank Street,New London,CT,6320,,New London,860-447-8021,,,,http://www.scadd.org,41.344466,-72.112582,SA
York County Shelters Programs Inc,,147 Shaker Hill Road,Alfred,ME,4002,,York,207-324-1137,,,,http://www.yorkcountyshelterprograms.org,43.5017533,-70.7147505,SA
Gosnold Counseling Center,,179 Route 6-A,Orleans,MA,2653,,Barnstable,508-255-3584,,800-444-1554,,http://,41.7816529,-69.9972357,SA
DMHAS,Veterans Recovery Center,287 West Street,Rocky Hill,CT,6067,,Hartford,860-616-3831,Intakes,860-616-3832,860-616-3802,http://www.state.ct.us/ctva,41.6534327,-72.6511393,SA
New England Medicine and ,Counseling Associates,120 Route 10 South,Grantham,NH,3753,,Sullivan,603-903-2900,,,802-503-8456,http://newenglandmca.com/,43.4964201,-72.1357551,SA
Veterans Affairs,Connecticut Healthcare System,555 Willard Avenue,Newington,CT,6111,,Hartford,860-667-6747,,860-594-6354,,http://www.connecticut.va.gov,41.7024461,-72.7348694,SA
Newington Dept of Human Services,,131 Cedar Street,Newington,CT,6111,,Hartford,860-665-8590,,,,http://www.newingtonct.gov,41.696705,-72.7299547,SA
Rushford Center Inc,Intermediate Residential Unit,325 Main Street,Portland,CT,6480,,Middlesex,860-342-3252,,877-577-3233,,http://rushford.org,41.5778898,-72.6361981,SA
York County Shelters Program Inc,Angers Farm,105 Garland Road,West Newfield,ME,4095,,York,207-636-5535,,207-324-1137,,http://www.yorkcountyshelterprograms.org,43.6136742,-70.9254033,SA
Rushford Center Inc,Adult Ambulatory Services,1250 Silver Street,Middletown,CT,6457,,Middlesex,860-852-1001,,877-577-3233,,http://www.recoveryneverstops.org,41.5580688,-72.6218485,SA
Rushford Center Inc,ACE Program,1250 Silver Street,Middletown,CT,6457,,Middlesex,860-852-1001,,877-577-3233,,http://www.recoveryneverstops.org,41.557656,-72.621357,SA
Rushford Center Inc,Intensive Treatment Program,1250 Silver Street,Middletown,CT,6457,,Middlesex,860-852-1001,,877-577-3233,,http://rushford.org,41.55806,-72.6219081,SA
Rushford Center Inc,Seniors,1250 Silver Street,Middletown,CT,6457,,Middlesex,860-852-1001,,877-577-3233,,http://,41.5580375,-72.6218837,SA
Connection,Hallie House for Women and Children,99 Eastern Drive,Middletown,CT,6457,,Middlesex,860-343-5513,,,,http://www.theconnectioninc.org,41.5570043,-72.633938,SA
Maine Behavioral Healthcare,,2 Springbrook Drive,Biddeford,ME,4005,,York,207-282-1500,,844-292-0111,,http://,43.486361,-70.488987,SA
Connecticut Valley Hospital,Addiction Services Division,Eastern Drive,Middletown,CT,6457,,Middlesex,800-828-3396 x5,Intakes,800-828-3396,860-262-6320,http://www.ct.gov/dmhas,41.5525073,-72.6323137,SA
Connection Counseling Center,Middletown,196 Court Street,Middletown,CT,6457,,Middlesex,860-343-5510,,855-435-7955,,http://www.theconnectioninc.org,41.56019,-72.650506,SA
Catholic Charities Diocese Norwich Inc,Psychiatric Outpt Clinic for Adults,151 Broad Street,Middletown,CT,6457,,Middlesex,860-346-0060,,,,http://www.ccfsn.org,41.560908,-72.652721,SA
College Street Counseling Center LLC,,154 College Street,Middletown,CT,6457,,Middlesex,860-347-8894 x1,,860-347-8894,,http://www.collegestreetcounseling.com,41.5584411,-72.6514718,SA
Gilead Community Services Inc,,230 Main Street Extension,Middletown,CT,6457,,Middlesex,860-343-5303 x3419,,,,http://www.gileadcs.org,41.5507874,-72.6428387,SA
Connection House,,167 Liberty Street,Middletown,CT,6457,,Middlesex,860-343-5512,,,,http://www.theconnectioninc.org,41.562112,-72.658754,SA
Farrell Treatment Center,,586 Main Street,New Britain,CT,6051,,Hartford,860-225-4641 x2004,,860-225-4641,,http://www.farrell-tc.com,41.6724525,-72.7816664,SA
Hartford Dispensary,New Britain Clinic,70 Whiting Street,New Britain,CT,6051,,Hartford,860-827-3313,,,,http://hartforddispensary.org/,41.6613438,-72.7770272,SA
Hospital of Central Connecticut,Substance Abuse Treatment,73 Cedar Street,New Britain,CT,6052,,Hartford,860-224-5267,,860-224-5267 x5804,,http://thocc.org/services/behavioral-mental-health,41.668658,-72.7869851,SA
Rachel Schlein,,22 South Street,Biddeford,ME,4005,,York,207-553-0283,,,283-553-0283,http://,43.4931831,-70.4572519,SA
Groups Recover Together,,265 Main Street,Biddeford,ME,4005,,York,800-683-8313,,,,http://www.joingroups.com,43.4939684,-70.4580842,SA
Food Addiction and,Chem Dep Consultants LLC,5 Allfred Street,Biddeford,ME,4005,,York,207-774-4564,,,,http://www.addictiontreatmentplus.com,43.4922476,-70.453254,SA
Community Mental Health Affiliates,Adult Behavioral Health Clinic,5 Hart Street,New Britain,CT,6052,,Hartford,860-229-4850,,,,http://www.cmhacc.org,41.6602532,-72.7835019,SA
Wheeler Clinic Inc,Lifeline Program,36 Russell Street,New Britain,CT,6052,,Hartford,860-223-8885,,860-793-3500,,http://,41.666942,-72.790305,SA
Wheeler Clinic Inc,,75 North Mountain Road,New Britain,CT,6053,,Hartford,860-224-6300,Intakes,860-793-3588,800-793-3588,http://,41.6699745,-72.8195539,SA
Spectrum Health Systems Inc,Opioid Treatment Program,1274 Curran Highway,North Adams,MA,1247,,Berkshire,413-664-9024,,,,http://,42.6672315,-73.1071221,SA
Spectrum Health Systems Inc,Outpatient Counseling,1274 Curran Highway,North Adams,MA,1247,,Berkshire,413-664-9024,,,,http://www.spectrumhealthsystems.org,42.6672381,-73.1072526,SA
Our Fathers House Christian Mission,,325 North Street,Saco,ME,4072,,York,207-571-4981,,,207-229-5383,http://,43.5173073,-70.453934,SA
Brien Center,Satellite Location,71 Hospital Avenue ,North Adams,MA,1247,,Berkshire,413-664-5540,,413-664-4541,,http://,42.7058896,-73.108404,SA
Brien Center ,MH and Substance Abuse Services,124 American Legion Drive,North Adams,MA,1247,,Berkshire,413-664-4541,,413-499-0412,,http://www.briencenter.org,42.6965808,-73.1123305,SA
Wheeler Clinic Inc,Adult Outpatient,91 NW Drive,Plainville,CT,6062,,Hartford,860-793-3500,Intakes,860-793-3588,800-793-3588,http://,41.69197,-72.877444,SA
Wheeler Clinic Inc,Adolescent Substance Abuse Trt Prog,91 NW Drive,Plainville,CT,6062,,Hartford,860-793-3567,,800-793-3588,,http://,41.69191606,-72.87770301,SA
HALO Educational Systems,,44 Roberts Road,Canaan,NH,3741,,Grafton,603-523-8804,,,,http://www.haloeducationalsystems.com,43.6491104,-72.0455745,SA
Milestone Foundation,Extended Care,28 Portland Avenue,Old Orchard Beach,ME,4064,,York,207-934-5231,,,207-934-7001,http://www.milestonefoundation.org,43.51938016,-70.37811894,SA
McCall Foundation Inc,Winsted Satellite Office,231 North Main Street,Winsted,CT,6098,,Litchfield,860-496-2100,,,,http://www.mccallcenterct.org,41.9277459,-73.0593855,SA
Hartford Dispensary,Bristol Clinic,1098 Farmington Avenue,Bristol,CT,6010,,Hartford,860-589-6433,,,,http://www.hartforddispensary.org,41.695962,-72.9070744,SA
Connection Inc,Connection/Csl Ctr in Old Saybrook,263 Main Street,Old Saybrook,CT,6475,,Middlesex,860-395-6380,,855-435-7955,,http://www.theconnectioninc.org,41.2893874,-72.37622,SA
Day One,Hollis House,408 Bar Mills Road,Hollis Center,ME,4042,,York,207-767-0991 x100,,,,http://www.day-one.org,43.6109093,-70.5622685,SA
Day One,Residential Girls House,18 Salmon Falls,Buxton,ME,4093,,York,207-808-5930,,,,http://www.day-one.org,43.609864,-70.550769,SA
Spectrum Health Systems Inc,Pittsfield Outpatient,390 Merrill Road,Pittsfield,MA,1201,,Berkshire,413-442-0402 x765,,508-752-2590,,http://www.spectrumhealthsystems.org,42.4580497,-73.210879,SA
Rushford at Stonegate,,459 Wallingford Road,Durham,CT,6422,,Middlesex,877-577-3233,,,860-349-2043,http://rushford.org,41.4736106,-72.7142486,SA
Crossroads,,71 U.S. Route 1,Scarborough,ME,4074,,Cumberland,207-773-9931,,,,http://www.crossroadsme.org,43.56796,-70.39072,SA
Plymouth House,,446 Main Street,Plymouth,NH,3264,,Grafton,603-536-5500,,800-428-8459,,http://www.theplymouthhouse.com,43.759379,-71.6875402,SA
Bristol Hospital Counseling Center,,420 North Main Street,Bristol,CT,6010,,Hartford,860-583-5858,,,,http://,41.6798133,-72.9465792,SA
Rushford Center Inc,Turning Point,883 Paddock Avenue,Meriden,CT,6450,,New Haven,203-630-5317,,877-577-3233,,http://www.hartfordhealthcare.org/,41.5051699,-72.7769609,SA
Wheeler Clinic Inc,Bristol Health and Wellness Center,10 North Main Street,Bristol,CT,6010,,Hartford,860-584-6555,,860-793-3500,,http://www.wheelerclinic.org,41.6685447,-72.9428297,SA
Horizons Counseling Center,,258 Highland Street,Plymouth,NH,3264,,Grafton,603-536-2010,,,603-524-8005,http://,43.766543,-71.714599,SA
Brien Center,Mental Health/Substance Abuse Servs,333 East Street,Pittsfield,MA,1201,,Berkshire,413-499-0412,,,,http://www.briencenter.org,42.4481344,-73.2470997,SA
Brien Center ,MH/Subst Abuse Servs/Satellite,251 Fenn Street,Pittsfield,MA,1201,,Berkshire,413-499-0412 x1222,Intakes,413-499-0412,800-252-0227,http://www.briencenter.org,42.449967,-73.248189,SA
Berkshire Medical Center,McGee Unit 3 West,725 North Street,Pittsfield,MA,1201,,Berkshire,413-442-1400,,413-445-9228,,http://www.bhs1.org,42.459638,-73.2492284,SA
Brien Center,Keenan House,202 Bradford Street,Pittsfield,MA,1201,,Berkshire,413-499-2756,,,413-499-0501,http://www.briencenter.org,42.4548611,-73.2561118,SA
Headrest Inc,,14 Church Street,Lebanon,NH,3766,,Grafton,603-448-4872 x102,Intakes,603-448-4872 x101,603-448-4400,http://www.headrest.org,43.6407235,-72.2520638,SA
Addiction Treatment Program,Dartmouth Hitchcock Hospital,85 Mechanic Street,Lebanon,NH,3766,,Grafton,603-653-1860,,,,http://dms.dartmouth.edu/psych/care/dhmc_services/addiction/,43.638545,-72.2588271,SA
West Central Behavioral Health,,85 Mechanic Street,Lebanon,NH,3766,,Grafton,603-448-5610,,603-542-5128,,http://www.wcbh.org/,43.638545,-72.2588271,SA
HALO Educational Systems,,1 School Street,Lebanon,NH,3766,,Grafton,603-523-8804,,,,http://haloeducationalsystems.com,43.6420603,-72.2504452,SA
Groups Recover Together,,31 Hanover Street,Lebanon,NH,3766,,Grafton,800-683-8313,,,,http://www.joingroups.com,43.6423853,-72.2539193,SA
ROAD to a Better Life,,37 Spencer Street,Lebanon,NH,3766,,Grafton,603-727-9071,Intakes,603-841-2307,603-841-2317,http://www.roadtoabetterlifenh.com,43.6460373,-72.2465929,SA
West Lebanon Comp Trt Center,,254 Plainfield Road,West Lebanon,NH,3784,,Grafton,603-298-2146,,,,http://www.crchealth.com,43.6283951,-72.3240467,SA
CMHA NW Ctr for Family Servs and,Mental Health,100 Commercial Boulevard,Torrington,CT,6790,,Litchfield,860-482-8561,,,,http://www.cmha.com,41.824086,-73.107441,SA
Mary Menard LADC,,636 U.S. Route 1,Scarborough,ME,4070,6305,Cumberland,207-329-9555,,,,http://,43.5953888,-70.3260395,SA
White River Junction VA Med Center,Behavioral Health Service Line,215 North Main Street,White River Junction,VT,5009,,Windsor,802-295-9363 x5760,,,,http://www.whiteriver.va.gov/services/Mental_Health/Substance_Abuse.asp,43.6501844,-72.3223482,SA
United Counseling Service of,Bennington County Inc,100 Ledge Hill Drive,Bennington,VT,5201,,Bennington,802-442-5491 x235,,802-442-5491,,http://,42.8724861,-73.2056212,SA
McCall Center for Behavioral Health,McCall House,127 Migeon Avenue,Torrington,CT,6790,,Litchfield,860-496-2105,,,,http://www.mccallcenterct.org,41.805561,-73.128805,SA
McCall Center for Behavioral Health,Outpatient Program,58 High Street,Torrington,CT,6790,,Litchfield,860-496-2100,,,,http://www.mccallcenterct.org,41.8031201,-73.130708,SA
McCall Foundation Inc,OP Senior Outreach,58 High Street,Torrington,CT,6790,,Litchfield,860-496-2100,,860-485-8605,,http://,41.8031201,-73.130708,SA
McCall Center for Behavioral Health,Carnes Weeks Ctr/Intensive Resid,58 High Street,Torrington,CT,6790,,Litchfield,860-496-2107,,,,http://www.mccallcenterct.org,41.8030322,-73.1310083,SA
Healthcare and Rehabilitation Services,SE Vermont/White River Junction,49 School Street,Hartford,VT,5047,,Windsor,802-295-3031,,,,http://www.hcrs.org,43.6623537,-72.3356419,SA
Center for Compassionate Recovery,,17 Wall Street,Madison,CT,6443,,New Haven,203-245-0412,,,,http://ccrfreshstart.com/,41.2804447,-72.5946727,SA
South Portland/Debra Ouimette,,650 Main Street,South Portland,ME,4106,,Cumberland,207-205-7556,,,,http://www.doui-help.com,43.6202283,-70.304231,SA
Northshire UCS,,5312 Main Street,Manchester Center,VT,5255,,Bennington,802-362-3950,,802-442-5491,,http://www.ucsvt.org,43.178497,-73.048676,SA
Midwestern CT Council of Alcoholism,Torrington,30 Peck Road,Torrington,CT,6790,,Litchfield,860-482-2613 x2400,,,,http://www.mccaonline.com,41.7857308,-73.1435277,SA
Clara Martin Center,Quitting Time,39 Fogg Farm Road,Wilder,VT,5088,,Windsor,802-295-1311,,,,http://www.claramartin.org,43.686069,-72.320503,SA
Day One,Outpatient Office,525 Main Street,South Portland,ME,4106,,Cumberland,207-874-1045,,207-874-1045 x115,,http://www.day-one.org,43.623964,-70.300308,SA
Discovery House of South Portland,Comprehensive Treatment Centers,400 Western Avenue,South Portland,ME,4106,,Cumberland,207-560-0436,,,,http://www.mainectc.com/location/southportland/,43.6417969,-70.3292543,SA
Spring Harbor Hospital,Maine Behavioral Healthcare,123 Andover Road,Westbrook,ME,4092,,Cumberland,888-524-0080,Intakes,207-761-6644,207-761-2200,http://www.springharbor.org/,43.6533988,-70.3441447,SA
Sweetser Affiliate,Monique Murray LCPC/C CADC,70 Ossipee Trail East,Standish,ME,4084,,Cumberland,207-850-0314,,,,http://,43.7333028,-70.5461357,SA
Merrimack River Medical Servs Inc,DBA Healthcare Resource Centers,2300 Congress Street,Portland,ME,4102,,Cumberland,207-221-2292,,,,http://www.hcrcenters.com/,43.650261,-70.333998,SA
Aware Recovery Care,In Home Addiction Treatment,556 Washington Avenue,North Haven,CT,6473,,New Haven,203-779-5799,,,,http://www.awarerecoverycare.com,41.4185614,-72.8401482,SA
Connecticut Counseling Centers Inc,Waterbury Methadone Prog Detox,4 Midland Road,Waterbury,CT,6705,,New Haven,203-755-8874,,,,http://www.ctcounseling.org,41.545448,-72.9877869,SA
Connecticut Counseling Centers Inc,Waterbury Outpatient Program,4 Midland Road,Waterbury,CT,6705,,New Haven,203-755-8874 x110,,203-755-8874,,http://www.ctcounseling.org,41.5449803,-72.9879869,SA
Eden Hill Recovery Retreat,,143 East Canaan Road,Canaan,CT,6018,,Litchfield,860-307-7512,,,,http://www.edenhillrecoveryretreat.com,42.0175337,-73.3047217,SA
Brien Center,Satellite for MH and SA,60 Cottage Street,Great Barrington,MA,1230,,Berkshire,413-528-9156,,413-499-0412,,http://www.briencenter.org,42.1975144,-73.3582282,SA
Fairwinds,Nantuckets Counseling Center,20 Vesper Lane,Nantucket,MA,2554,,Nantucket,508-228-2689,,,,http://www.fairwindscenter.org/,41.2742542,-70.1013215,SA
Health Affiliates Maine,Deborah Brown LCSW LADC,222 Saint John Street,Portland,ME,4102,,Cumberland,207-240-7199,,,,http://,43.6509186,-70.2793907,SA
Groups Recover Together,,222 Saint John Street,Portland,ME,4102,,Cumberland,800-683-8313,,,,http://www.joingroups.com,43.6509186,-70.2793907,SA
Sweetser Affiliate,David A Patch Jr/SCRx Life Trans,222 Saint John Street,Portland,ME,4102,,Cumberland,207-891-8618,,207-828-0101,,http://,43.6509186,-70.2793907,SA
Wellmore Behavioral Health Inc,Therapeutic Shelter,142 Griggs Street,Waterbury,CT,6704,,New Haven,203-574-1419,,,,http://www.wellmore.org,41.5640895,-73.0246916,SA
Cap Quality Care Inc,,1 Delta Drive,Westbrook,ME,4092,,Cumberland,207-856-7227,,,,http://www.capqualitycare.com,43.68108148,-70.33227471,SA
Eastern Long Island Hospital,Quannacut Detoxification Program,201 Manor Place,Greenport,NY,11944,,Suffolk,631-477-1000 x5234,,631-477-8877,,http://www.elih.org,41.110391,-72.361276,SA
Eastern Long Island Hospital,Quannacut Addiction Services,201 Manor Place,Greenport,NY,11944,,Suffolk,631-477-8877,,,,http://www.elih.org,41.110391,-72.361276,SA
Serenity House Inc,,30 Mellen Street,Portland,ME,4101,,Cumberland,207-324-1137,,,,http://,43.65422859,-70.27003803,SA
Family Intervention Center,,22 Chase River Road,Waterbury,CT,6704,,New Haven,203-753-2153,,,,http://www.familyinterventioncenterct.com,41.585349,-73.052668,SA
Top of the Hill Counseling,,142 High Street,Portland,ME,4101,,Cumberland,207-780-8999,,,,http://www.topofthehill.me,43.654134,-70.26377,SA
Connecticut Renaissance Inc,East Residential Treatment Facility,31 Wolcott Street,Waterbury,CT,6702,,New Haven,203-753-2341,,203-753-2341 x2710,,http://www.ctrenaissance.com,41.5536014,-73.026607,SA
Frannie Peabody Center,,30 Danforth Street,Portland,ME,4101,,Cumberland,207-774-6877,,207-619-8025,,http://www.peabodycenter.org,43.653411,-70.2578503,SA
Behavioral Health Resources of Maine,,48 Free Street,Portland,ME,4101,,Cumberland,207-808-1384,,,,http://www.behavioralhealthresources.me,43.6561255,-70.2584736,SA
